SALE TYPE,SOLD DATE,PROPERTY TYPE,ADDRESS,CITY,STATE OR PROVINCE,ZIP OR POSTAL CODE,PRICE,BEDS,BATHS,LOCATION,SQUARE FEET,LOT SIZE,YEAR BUILT,DAYS ON MARKET,$/SQUARE FEET,HOA/MONTH,STATUS,NEXT OPEN HOUSE START TIME,NEXT OPEN HOUSE END TIME,URL (SEE https://www.redfin.com/buy-a-home/comparative-market-analysis FOR INFO ON PRICING),SOURCE,MLS#,FAVORITE,INTERESTED,LATITUDE,LONGITUDE
MLS Listing,,Townhouse,556 Saco Ter,Sunnyvale,CA,94089,1558000,3,2.5,SUNNYVALE,1720,672,2008,1,906,309,Active,October-14-2023 12:00 PM,October-14-2023 04:00 PM,https://www.redfin.com/CA/Sunnyvale/556-Saco-Ter-94089/home/17292192,MLSListings,ML81944671,N,Y,37.4000958,-122.0118675
MLS Listing,,Townhouse,318 Xavier Way,Mountain View,CA,94043,2250000,4,3.5,MOUNTAIN VIEW,1981,1356,2021,1,1136,450,Active,October-13-2023 10:30 AM,October-13-2023 01:00 PM,https://www.redfin.com/CA/Mountain-View/318-Xavier-Way-94043/home/172924463,MLSListings,ML81944589,N,Y,37.405729,-122.090319
MLS Listing,,Condo/Co-op,706 Avenue One,San Jose,CA,95123,1138000,3,3.5,SAN JOSE,1712,,2016,1,665,390,Active,October-14-2023 01:00 PM,October-14-2023 04:00 PM,https://www.redfin.com/CA/San-Jose/706-Avenue-One-95123/home/95957859,MLSListings,ML81943186,N,Y,37.2433675,-121.797521
MLS Listing,,Townhouse,6613 Folklore Ct,San Jose,CA,95120,1199000,3,2.5,SAN JOSE,1354,,1977,6,886,465,Active,,,https://www.redfin.com/CA/San-Jose/6613-Folklore-Ct-95120/home/890645,MLSListings,ML81944120,N,Y,37.2184802,-121.8585496
MLS Listing,,Single Family Residential,50 N Midway St,Campbell,CA,95008,2780000,4,2.0,CAMPBELL,2476,7332,1956,11,1123,,Active,,,https://www.redfin.com/CA/Campbell/50-N-Midway-St-95008/home/915769,MLSListings,ML81943672,N,Y,37.2878396,-121.9267558
MLS Listing,,Single Family Residential,6544 Little Falls Dr,San Jose,CA,95120,2378999,4,2.5,SAN JOSE,2364,10610,1965,15,1006,,Active,October-14-2023 01:00 PM,October-14-2023 04:00 PM,https://www.redfin.com/CA/San-Jose/6544-Little-Falls-Dr-95120/home/1317823,MLSListings,ML81940360,N,Y,37.216909,-121.8700034
MLS Listing,,Townhouse,922 Gaspar Vis,San Jose,CA,95126,1200000,4,4.0,SAN JOSE,1930,984,2009,15,622,318,Active,,,https://www.redfin.com/CA/San-Jose/922-Gaspar-Vis-95126/home/28895153,MLSListings,ML81940163,N,Y,37.3213381,-121.9041297
MLS Listing,,Single Family Residential,4993 Grimsby Dr,San Jose,CA,95130,2248000,4,2.5,SAN JOSE,1955,5636,1965,15,1150,,Active,,,https://www.redfin.com/CA/San-Jose/4993-Grimsby-Dr-95130/home/1697470,MLSListings,ML81943157,N,Y,37.2804434,-121.9886765
MLS Listing,,Single Family Residential,818 N 13th St,San Jose,CA,95112,1118000,3,1.0,SAN JOSE,1316,5404,1910,16,850,,Active,,,https://www.redfin.com/CA/San-Jose/818-N-13th-St-95112/home/1548418,MLSListings,ML81943043,N,Y,37.3578108,-121.8895021
MLS Listing,,Single Family Residential,2451 Cory Ave,San Jose,CA,95128,899999,3,1.0,SAN JOSE,1040,7230,1950,19,865,,Active,,,https://www.redfin.com/CA/San-Jose/2451-Cory-Ave-95128/home/1774434,MLSListings,ML81942790,N,Y,37.3319824,-121.9487775
MLS Listing,,Single Family Residential,1037 Keltner Ave,San Jose,CA,95117,1498000,4,2.0,SAN JOSE,1236,6613,1958,21,1212,,Active,,,https://www.redfin.com/CA/San-Jose/1037-Keltner-Ave-95117/home/749377,MLSListings,ML81942573,N,Y,37.3077923,-121.9681735
MLS Listing,,Townhouse,1882 Winding Creek Ct,San Jose,CA,95148,839000,2,2.5,SAN JOSE,1473,1974,1984,22,570,466,Active,,,https://www.redfin.com/CA/San-Jose/1882-Winding-Creek-Ct-95148/home/1109067,MLSListings,ML81942039,N,Y,37.3503339,-121.794899
MLS Listing,,Condo/Co-op,325 San Miguel Ct #1,Milpitas,CA,95035,669000,3,1.0,MILPITAS,1050,,1971,26,637,544,Active,,,https://www.redfin.com/CA/Milpitas/325-San-Miguel-Ct-95035/unit-1/home/167190717,MLSListings,ML81942143,N,Y,37.4246516,-121.9115457
MLS Listing,,Single Family Residential,8911 Del Rio Cir,Gilroy,CA,95020,859000,3,2.5,GILROY,1886,3239,2000,26,455,79,Active,October-14-2023 01:00 PM,October-14-2023 04:00 PM,https://www.redfin.com/CA/Gilroy/8911-Del-Rio-Cir-95020/home/1695327,MLSListings,ML81942075,N,Y,37.0259216,-121.5833107
MLS Listing,,Townhouse,532 Tyrella Ave #29,Mountain View,CA,94043,1190000,3,2.0,,1128,960,1971,27,1055,375,Active,,,https://www.redfin.com/CA/Mountain-View/532-Tyrella-Ave-94043/unit-29/home/1057077,"bridgeMLS, Bay East AOR, or Contra Costa AOR",41039207,N,Y,37.404157,-122.0630153
MLS Listing,,Condo/Co-op,1550 Technology Dr #2004,San Jose,CA,95110,589000,1,1.0,SAN JOSE,831,,2005,30,709,497,Active,,,https://www.redfin.com/CA/San-Jose/1550-Technology-Dr-95110/unit-2004/home/2123261,MLSListings,ML81941558,N,Y,37.3629302,-121.9146208
MLS Listing,,Single Family Residential,1475 Mckendrie St,San Jose,CA,95126,2300000,6,4.0,SAN JOSE,3096,10376,1925,35,743,,Active,,,https://www.redfin.com/CA/San-Jose/1475-McKendrie-St-95126/home/1719627,MLSListings,ML81938281,N,Y,37.3375957,-121.9306671
MLS Listing,,Condo/Co-op,1060 S 3rd St #381,San Jose,CA,95112,490000,1,1.0,SAN JOSE,667,,2005,49,735,575,Active,,,https://www.redfin.com/CA/San-Jose/1060-S-3rd-St-95112/unit-381/home/2124611,MLSListings,ML81939622,N,Y,37.3217979,-121.8760512
MLS Listing,,Single Family Residential,22095 Old Santa Cruz Hwy,Los Gatos,CA,95033,1900000,4,4.0,LOS GATOS,3231,42874,1938,57,588,,Active,October-15-2023 01:30 PM,October-15-2023 04:30 PM,https://www.redfin.com/CA/Los-Gatos/22095-Old-Santa-Cruz-Hwy-95033/home/1421560,MLSListings,ML81938449,N,Y,37.1514025,-121.9749046
MLS Listing,,Condo/Co-op,1375 Lick Ave #1030,San Jose,CA,95110,615000,1,1.0,SAN JOSE,687,,2009,71,895,515,Active,,,https://www.redfin.com/CA/San-Jose/1375-Lick-Ave-95110/unit-1030/home/17290531,MLSListings,ML81936870,N,Y,37.311013,-121.882429
MLS Listing,,Condo/Co-op,38 N Almaden Blvd #403,San Jose,CA,95110,685000,1,1.0,SAN JOSE,868,,2008,98,789,577,Active,,,https://www.redfin.com/CA/San-Jose/38-N-Almaden-Blvd-95110/unit-403/home/17288134,MLSListings,ML81933877,N,Y,37.3348687,-121.8957681
Redfin Data,,Condo/Co-op,1653 Albatross Dr,Sunnyvale,CA,94087,1200000,3,2.5,Sunnyvale,1280,2900,1971,1,938,607,Pre On-Market,,,https://www.redfin.com/CA/Sunnyvale/1653-Albatross-Dr-94087/home/760126,Coming Soon,95338,N,Y,37.3395915,-122.0317565
Redfin Data,,Single Family Residential,6816 Avenida Rotella,San Jose,CA,95139,1100000,3,2.0,San Jose,1184,4880,1970,13,929,63,Pre On-Market,,,https://www.redfin.com/CA/San-Jose/6816-Avenida-Rotella-95139/home/1680242,Coming Soon,95129,N,Y,37.2300944,-121.7731635
Redfin Data,,Single Family Residential,1555 Mission Springs Cir,San Jose,CA,95131,1600000,4,2.5,San Jose,1768,3500,1997,22,905,,Pre On-Market,,,https://www.redfin.com/CA/San-Jose/1555-Mission-Springs-Cir-95131/home/686616,Coming Soon,94988,N,Y,37.3838032,-121.8870905
Redfin Data,,Single Family Residential,213 Velvetlake Dr,Sunnyvale,CA,94089,1500000,3,2.0,Sunnyvale,1108,7700,1957,27,1354,,Pre On-Market,,,https://www.redfin.com/CA/Sunnyvale/213-Velvetlake-Dr-94089/home/1320183,Coming Soon,94934,N,Y,37.3927278,-121.9978939
MLS Listing,,Single Family Residential,323 El Cajon Dr,San Jose,CA,95111,863880,3,2.0,SAN JOSE,1123,4984,1959,1,769,,Active,October-14-2023 01:00 PM,October-14-2023 03:00 PM,https://www.redfin.com/CA/San-Jose/323-El-Cajon-Dr-95111/home/653062,MLSListings,ML81944685,N,Y,37.2832262,-121.8294608
MLS Listing,,Single Family Residential,1771 Beverly Blvd,San Jose,CA,95116,975000,3,2.0,SAN JOSE,1287,5638,1948,1,758,,Active,October-14-2023 01:30 PM,October-14-2023 04:30 PM,https://www.redfin.com/CA/San-Jose/1771-Beverly-Blvd-95116/home/1203580,MLSListings,ML81944682,N,Y,37.3542899,-121.8551269
MLS Listing,,Single Family Residential,2957 Bell Ave,San Jose,CA,95133,1198000,3,2.0,SAN JOSE,1550,10207,1957,1,773,,Active,October-14-2023 02:00 PM,October-14-2023 04:00 PM,https://www.redfin.com/CA/San-Jose/2957-Bell-Ave-95133/home/1422186,MLSListings,ML81944681,N,Y,37.3766472,-121.8407155
MLS Listing,,Townhouse,832 Azure St,Sunnyvale,CA,94087,1280000,3,2.0,SUNNYVALE,1100,1128,1973,1,1164,375,Active,,,https://www.redfin.com/CA/Sunnyvale/832-Azure-St-94087/home/1351498,MLSListings,ML81944679,N,Y,37.3631055,-122.0312786
MLS Listing,,Multi-Family (2-4 Unit),148 Belwood Ct,Los Gatos,CA,95032,1700000,6,3.0,LOS GATOS,2767,7845,1968,1,614,120,Active,,,https://www.redfin.com/CA/Los-Gatos/148-Belwood-Ct-95032/home/1154364,MLSListings,ML81944678,N,Y,37.2348701,-121.9153765
MLS Listing,,Single Family Residential,3866 Baldwin Dr,Santa Clara,CA,95051,1899950,3,2.0,SANTA CLARA,1508,6600,1958,1,1260,,Active,October-14-2023 01:00 PM,October-14-2023 04:00 PM,https://www.redfin.com/CA/Santa-Clara/3866-Baldwin-Dr-95051/home/1830039,MLSListings,ML81944676,N,Y,37.3283677,-122.0027799
MLS Listing,,Condo/Co-op,505 Cypress Point Dr #231,Mountain View,CA,94043,795000,1,1.0,CA MOUNTAIN VIEW,784,2000,1971,1,1014,588,Active,,,https://www.redfin.com/CA/Mountain-View/505-Cypress-Point-Dr-94043/unit-231/home/1747771,"bridgeMLS, Bay East AOR, or Contra Costa AOR",41041585,N,Y,37.3980848,-122.0726959
MLS Listing,,Single Family Residential,3253 Golf Dr,San Jose,CA,95127,1150000,3,2.0,SAN JOSE,1128,5971,1959,1,1020,,Active,October-14-2023 11:00 AM,October-14-2023 03:00 PM,https://www.redfin.com/CA/San-Jose/3253-Golf-Dr-95127/home/945289,MLSListings,ML81944673,N,Y,37.3844856,-121.8377875
MLS Listing,,Single Family Residential,1697 Don Ave,San Jose,CA,95124,1999888,4,2.5,SAN JOSE,2191,6784,1963,1,913,,Active,,,https://www.redfin.com/CA/San-Jose/1697-Don-Ave-95124/home/1204319,MLSListings,ML81943812,N,Y,37.2706175,-121.9102848
MLS Listing,,Single Family Residential,13850 Paseo Del Roble Dr,Los Altos Hills,CA,94022,6998000,5,6.0,LOS ALTOS HILLS,6287,121968,1977,1,1113,,Active,October-13-2023 09:30 AM,October-13-2023 01:30 PM,https://www.redfin.com/CA/Los-Altos-Hills/13850-Paseo-del-Roble-Dr-94022/home/1303494,MLSListings,ML81944670,N,Y,37.3811401,-122.1664848
MLS Listing,,Condo/Co-op,1060 S 3rd St #183,San Jose,CA,95112,658888,1,1.0,SAN JOSE,1100,,2005,1,599,661,Active,October-14-2023 02:00 PM,October-14-2023 04:00 PM,https://www.redfin.com/CA/San-Jose/1060-S-3rd-St-95112/unit-183/home/2124529,MLSListings,ML81944669,N,Y,37.3217979,-121.8760512
MLS Listing,,Single Family Residential,1065 Oaktree Dr,San Jose,CA,95129,2860998,6,3.5,SAN JOSE,2284,6856,1964,1,1253,,Active,October-14-2023 01:00 PM,October-14-2023 04:00 PM,https://www.redfin.com/CA/San-Jose/1065-Oaktree-Dr-95129/home/1265826,MLSListings,ML81944667,N,Y,37.3066644,-122.001625
MLS Listing,,Single Family Residential,18660 Barnhart Ave,Cupertino,CA,95014,2880000,4,4.0,CUPERTINO,3553,6600,2005,1,811,,Active,October-12-2023 10:00 AM,October-12-2023 12:30 PM,https://www.redfin.com/CA/Cupertino/18660-Barnhart-Ave-95014/home/2121593,MLSListings,ML81944666,N,Y,37.3151819,-121.9982937
MLS Listing,,Single Family Residential,50 Southfield Ct,San Jose,CA,95138,1135000,3,2.0,SAN JOSE,1187,5993,1983,1,956,,Active,October-14-2023 01:30 PM,October-14-2023 04:00 PM,https://www.redfin.com/CA/San-Jose/50-Southfield-Ct-95138/home/976246,MLSListings,ML81944665,N,Y,37.2445267,-121.780063
MLS Listing,,Condo/Co-op,1445 Fruitdale Ave #222,San Jose,CA,95128,629000,1,1.0,SAN JOSE,723,,2009,1,870,442,Active,October-14-2023 01:30 PM,October-14-2023 04:30 PM,https://www.redfin.com/CA/San-Jose/1445-Fruitdale-Ave-95128/unit-222/home/23047482,MLSListings,ML81944661,N,Y,37.3113172,-121.9162433
MLS Listing,,Single Family Residential,339 N Murphy Ave,Sunnyvale,CA,94085,1249000,2,1.0,SUNNYVALE,790,5200,1942,1,1581,,Active,October-11-2023 04:00 PM,October-11-2023 06:00 PM,https://www.redfin.com/CA/Sunnyvale/339-N-Murphy-Ave-94085/home/1655517,MLSListings,ML81944172,N,Y,37.3855484,-122.0272954
MLS Listing,,Single Family Residential,1467 Liberty Ct,Alviso (san Jose),CA,95002,988888,3,2.0,,1400,6198,1950,1,706,,Active,October-14-2023 01:00 PM,October-14-2023 05:00 PM,https://www.redfin.com/CA/Alviso/1467-Liberty-Ct-95002/home/1272868,"bridgeMLS, Bay East AOR, or Contra Costa AOR",41041574,N,Y,37.426442,-121.97422
MLS Listing,,Single Family Residential,4344 Beechmont Ave,San Jose,CA,95136,1650000,3,2.0,San Jose,1910,5937,1968,1,864,,Active,October-14-2023 12:00 PM,October-14-2023 04:00 PM,https://www.redfin.com/CA/San-Jose/4344-Beechmont-Ave-95136/home/1167078,MetroList,223099082,N,Y,37.2670907,-121.870159
MLS Listing,,Townhouse,173 Sierra Vista Ave #6,Mountain View,CA,94043,1198000,2,2.5,MOUNTAIN VIEW,1196,889,1987,1,1002,452,Active,October-13-2023 09:30 AM,October-13-2023 01:00 PM,https://www.redfin.com/CA/Mountain-View/173-Sierra-Vista-Ave-94043/unit-6/home/1867239,MLSListings,ML81944432,N,Y,37.4032534,-122.0922052
MLS Listing,,Single Family Residential,3980 Casa Grande Way,San Jose,CA,95118,1695000,4,2.5,SAN JOSE,1996,6189,1966,1,849,,Active,October-14-2023 01:00 PM,October-14-2023 04:00 PM,https://www.redfin.com/CA/San-Jose/3980-Casa-Grande-Way-95118/home/857432,MLSListings,ML81944647,N,Y,37.2658194,-121.8851234
MLS Listing,,Vacant Land,0 San Ramon Ave,Mountain View,CA,94043,2980000,,,MOUNTAIN VIEW,,7664,,1,,,Active,,,https://www.redfin.com/CA/Mountain-View/San-Ramon-Ave-94043/home/95953934,MLSListings,ML81944646,N,Y,37.409043,-122.088696
MLS Listing,,Single Family Residential,15045 Stratford Dr,San Jose,CA,95124,1549000,3,1.5,SAN JOSE,1177,8448,1948,1,1316,,Active,October-14-2023 01:00 PM,October-14-2023 04:00 PM,https://www.redfin.com/CA/San-Jose/15045-Stratford-Dr-95124/home/834785,MLSListings,ML81944645,N,Y,37.2592202,-121.9322672
MLS Listing,,Single Family Residential,462 Juanita Dr,Santa Clara,CA,95050,2127111,3,2.5,SANTA CLARA,1440,6234,2018,1,1477,,Active,October-14-2023 01:00 PM,October-14-2023 04:00 PM,https://www.redfin.com/CA/Santa-Clara/462-Juanita-Dr-95050/home/663643,MLSListings,ML81944642,N,Y,37.3358479,-121.9575983
MLS Listing,,Condo/Co-op,508 San Jorge Ter,Sunnyvale,CA,94089,1365000,2,2.5,SUNNYVALE,1579,,2007,1,864,338,Active,October-12-2023 10:00 AM,October-12-2023 12:00 PM,https://www.redfin.com/CA/Sunnyvale/508-San-Jorge-Ter-94089/home/2122903,MLSListings,ML81944640,N,Y,37.3995611,-122.0136825
MLS Listing,,Townhouse,3305 Innerwick Ln,San Jose,CA,95121,525000,2,1.5,SAN JOSE,988,1343,1974,1,531,465,Active,,,https://www.redfin.com/CA/San-Jose/3305-Innerwick-Ln-95121/home/1732491,MLSListings,ML81944639,N,Y,37.309138,-121.8038667
MLS Listing,,Mobile/Manufactured Home,1414 Sunshine Ct #1414,San Jose,CA,95122,595000,4,3.0,SAN JOSE,1830,,2018,1,325,,Active,,,https://www.redfin.com/CA/San-Jose/1414-Sunshine-Ct-95122/unit-1414/home/63742337,MLSListings,ML81944634,N,Y,37.3332097,-121.8485483
MLS Listing,,Single Family Residential,2315 Cherrystone Dr,San Jose,CA,95128,988000,2,1.0,SAN JOSE,806,5965,1950,1,1226,,Active,October-14-2023 01:00 PM,October-14-2023 03:00 PM,https://www.redfin.com/CA/San-Jose/2315-Cherrystone-Dr-95128/home/915376,MLSListings,ML81944631,N,Y,37.3350833,-121.9444002
MLS Listing,,Townhouse,2602 Baton Rouge Dr,San Jose,CA,95133,949000,2,2.5,SAN JOSE,1504,1180,2005,1,631,237,Active,October-14-2023 01:00 PM,October-14-2023 04:30 PM,https://www.redfin.com/CA/San-Jose/2602-Baton-Rouge-Dr-95133/home/2125305,MLSListings,ML81938123,N,Y,37.376032,-121.85005
MLS Listing,,Single Family Residential,858 Hierra Ct,Los Altos,CA,94024,5198000,5,3.5,LOS ALTOS,3397,16700,2013,1,1530,,Active,October-13-2023 09:30 AM,October-13-2023 01:00 PM,https://www.redfin.com/CA/Los-Altos/858-Hierra-Ct-94024/home/1594224,MLSListings,ML81944070,N,Y,37.3465842,-122.0906238
MLS Listing,,Mobile/Manufactured Home,1220 Tasman Dr #220,Sunnyvale,CA,94089,399000,3,2.0,SUNNYVALE,1413,,2000,1,282,,Active,,,https://www.redfin.com/CA/Sunnyvale/1220-Tasman-Dr-94089/unit-220/home/1107626,MLSListings,ML81943109,N,Y,37.4013384,-121.9913911
MLS Listing,,Townhouse,1517 Keesling Ave,San Jose,CA,95125,1488000,3,3.5,SAN JOSE,2462,1965,1981,1,604,250,Active,October-12-2023 10:00 AM,October-12-2023 12:00 PM,https://www.redfin.com/CA/San-Jose/1517-Keesling-Ave-95125/home/1129812,MLSListings,ML81944614,N,Y,37.2953403,-121.9095717
MLS Listing,,Mobile/Manufactured Home,2052 Gold St #34,Alviso,CA,95002,499900,3,2.0,ALVISO,1572,,2022,1,318,,Active,,,https://www.redfin.com/CA/San-Jose/2052-Gold-St-95002/unit-34/home/187942679,MLSListings,ML81944613,N,Y,37.4215796,-121.9741271
MLS Listing,,Mobile/Manufactured Home,440 Moffet #86,Mountain View,CA,94043,329900,2,,MOUNTAIN VIEW,720,,2021,1,458,,Active,,,https://www.redfin.com/CA/Mountain-View/440-Moffett-Blvd-94043/unit-86/home/187941125,MLSListings,ML81944610,N,Y,37.4005583,-122.0742431
MLS Listing,,Single Family Residential,1970 Via Santa Elena,Morgan Hill,CA,95037,3061890,5,5.5,,5122,10891,2024,1,598,375,Active,October-14-2023 11:00 AM,October-14-2023 04:00 PM,https://www.redfin.com/CA/Morgan-Hill/1970-Via-Santa-Elena-95037/home/187938488,"bridgeMLS, Bay East AOR, or Contra Costa AOR",41041526,N,Y,37.1619059,-121.6331342
MLS Listing,,Mobile/Manufactured Home,5450 Monterey #76,San Jose,CA,95111,429900,3,2.0,SAN JOSE,1458,,2022,1,295,,Active,,,https://www.redfin.com/CA/San-Jose/5450-Monterey-Hwy-95111/unit-76/home/187936457,MLSListings,ML81944607,N,Y,37.2588917,-121.8011412
MLS Listing,,Single Family Residential,2755 Rubino Cir,San Jose,CA,95125,1688000,4,2.5,SAN JOSE,2274,4279,1999,1,742,155,Active,October-11-2023 04:00 PM,October-11-2023 06:00 PM,https://www.redfin.com/CA/San-Jose/2755-Rubino-Cir-95125/home/1675794,MLSListings,ML81944604,N,Y,37.279857,-121.8751396
MLS Listing,,Single Family Residential,16645 De Witt Ave,Morgan Hill,CA,95037,1799000,3,2.0,MORGAN HILL,1852,104478,1974,1,971,,Active,October-14-2023 02:00 PM,October-14-2023 04:00 PM,https://www.redfin.com/CA/Morgan-Hill/16645-De-Witt-Ave-95037/home/1032225,MLSListings,ML81944602,N,Y,37.1154824,-121.6621533
MLS Listing,,Mobile/Manufactured Home,41 Timber Cv #41,Campbell,CA,95008,449500,3,2.0,CAMPBELL,1812,,2014,1,248,20,Active,,,https://www.redfin.com/CA/Campbell/41-Timber-Cove-Dr-95008/unit-41/home/187930354,MLSListings,ML81944590,N,Y,37.2767828,-121.9472888
MLS Listing,,Condo/Co-op,3332 Lake Albano Cir,San Jose,CA,95135,938000,2,2.0,SAN JOSE,1457,,1985,1,644,1266,Active,,,https://www.redfin.com/CA/San-Jose/3332-Lake-Albano-Cir-95135/home/1649114,MLSListings,ML81943454,N,Y,37.2874811,-121.7601729
MLS Listing,,Single Family Residential,20861 Hanford Dr,Cupertino,CA,95014,4488888,5,4.5,CUPERTINO,3673,9503,2002,1,1222,,Active,October-14-2023 02:00 PM,October-14-2023 04:30 PM,https://www.redfin.com/CA/Cupertino/20861-Hanford-Dr-95014/home/1838144,MLSListings,ML81944587,N,Y,37.3282831,-122.0389295
MLS Listing,,Condo/Co-op,6945 Rodling Dr Unit E,San Jose,CA,95138,789950,2,2.5,SAN JOSE,1093,436,1986,1,723,350,Active,October-14-2023 01:00 PM,October-14-2023 04:00 PM,https://www.redfin.com/CA/San-Jose/6945-Rodling-Dr-95138/unit-E/home/1407723,MLSListings,ML81944406,N,Y,37.2362627,-121.7666941
MLS Listing,,Single Family Residential,216 S Claremont Ave,San Jose,CA,95127,1025000,3,2.0,SAN JOSE,1486,8400,1946,1,690,,Active,,,https://www.redfin.com/CA/San-Jose/216-S-Claremont-Ave-95127/home/944710,MLSListings,ML81943678,N,Y,37.3709284,-121.8178936
MLS Listing,,Single Family Residential,2149 Stebbins Ave,Santa Clara,CA,95051,1499950,3,2.0,SANTA CLARA,1591,6000,1959,1,943,,Active,October-14-2023 01:00 PM,October-14-2023 04:00 PM,https://www.redfin.com/CA/Santa-Clara/2149-Stebbins-Ave-95051/home/1855963,MLSListings,ML81944578,N,Y,37.3617315,-121.9743048
MLS Listing,,Condo/Co-op,600 Pennsylvania Ave #21,Los Gatos,CA,95030,888000,1,1.5,LOS GATOS,864,,1962,1,1028,692,Active,October-11-2023 09:30 AM,October-11-2023 12:00 PM,https://www.redfin.com/CA/Los-Gatos/600-Pennsylvania-Ave-95030/unit-21/home/795469,MLSListings,ML81944574,N,Y,37.22596,-121.9932964
MLS Listing,,Single Family Residential,15376 Karl Ave,Monte Sereno,CA,95030,8500000,5,5.5,MONTE SERENO,5552,42875,2008,1,1531,,Active,October-12-2023 05:00 PM,October-12-2023 07:00 PM,https://www.redfin.com/CA/Monte-Sereno/15376-Karl-Ave-95030/home/677297,MLSListings,ML81941776,N,Y,37.2450124,-121.9787254
MLS Listing,,Condo/Co-op,425 1st St #35,Los Altos,CA,94022,2699000,2,2.5,LOS ALTOS,1332,,2023,1,2026,544,Active,,,https://www.redfin.com/CA/Los-Altos/425-1st-St-94022/unit-35/home/187919619,MLSListings,ML81944570,N,Y,37.3752705,-122.1154079
MLS Listing,,Condo/Co-op,1101 S Main St #118,Milpitas,CA,95035,699000,1,1.0,MILPITAS,926,,2007,1,755,579,Active,October-14-2023 01:00 PM,October-14-2023 04:00 PM,https://www.redfin.com/CA/Milpitas/1101-S-Main-St-95035/unit-118/home/167192848,MLSListings,ML81944568,N,Y,37.4134676,-121.9025407
MLS Listing,,Single Family Residential,17175 Wedgewood Ave,Los Gatos,CA,95032,2948000,6,5.5,LOS GATOS,3144,11854,1977,1,938,,Active,,,https://www.redfin.com/CA/Los-Gatos/17175-Wedgewood-Ave-95032/home/821373,MLSListings,ML81944565,N,Y,37.2595927,-121.9707202
MLS Listing,,Single Family Residential,21126 Locust Dr,Los Gatos,CA,95033,1198000,3,2.0,LOS GATOS,1437,10476,1929,1,834,,Active,October-11-2023 11:30 AM,October-11-2023 02:00 PM,https://www.redfin.com/CA/Los-Gatos/21126-Locust-Dr-95033/home/1496872,MLSListings,ML81944563,N,Y,37.1618018,-121.9724388
MLS Listing,,Single Family Residential,3379 Shady Spring Ln,Mountain View,CA,94040,4198000,5,3.0,MOUNTAIN VIEW,3277,8100,1992,1,1281,,Active,October-13-2023 10:00 AM,October-13-2023 01:00 PM,https://www.redfin.com/CA/Mountain-View/3379-Shady-Spring-Ln-94040/home/1223812,MLSListings,ML81944562,N,Y,37.3617268,-122.0707614
MLS Listing,,Townhouse,3173 Payne Ave #4,San Jose,CA,95117,715000,1,1.5,SAN JOSE,1070,1540,1976,1,668,375,Active,October-14-2023 02:30 PM,October-14-2023 05:30 PM,https://www.redfin.com/CA/San-Jose/3173-Payne-Ave-95117/unit-4/home/1083164,MLSListings,ML81944301,N,Y,37.30181,-121.9518882
MLS Listing,,Single Family Residential,5941 Moraga Ave,San Jose,CA,95123,1090000,3,2.0,SAN JOSE,1072,6121,1971,1,1017,,Active,October-13-2023 05:00 PM,October-13-2023 07:00 PM,https://www.redfin.com/CA/San-Jose/5941-Moraga-Ave-95123/home/1080809,MLSListings,ML81944558,N,Y,37.2409543,-121.8513769
MLS Listing,,Single Family Residential,2165 Denise Dr,Santa Clara,CA,95050,1799000,4,2.5,SANTA CLARA,2058,6351,1963,1,874,,Active,October-14-2023 02:00 PM,October-14-2023 04:00 PM,https://www.redfin.com/CA/Santa-Clara/2165-Denise-Dr-95050/home/1414019,MLSListings,ML81943218,N,Y,37.3487212,-121.9621307
MLS Listing,,Multi-Family (2-4 Unit),1673 Whitwood Ln,Campbell,CA,95008,2795000,6,6.0,CAMPBELL,3300,9093,1962,1,847,,Active,,,https://www.redfin.com/CA/Campbell/1673-Whitwood-Ln-95008/home/1532256,MLSListings,ML81944557,N,Y,37.284663,-121.9789031
MLS Listing,,Condo/Co-op,20488 Stevens Creek Blvd #2217,Cupertino,CA,95014,835000,1,1.0,CUPERTINO,875,,2003,1,954,578,Active,October-14-2023 01:00 PM,October-14-2023 04:00 PM,https://www.redfin.com/CA/Cupertino/20488-Stevens-Creek-Blvd-95014/unit-2217/home/1052232,MLSListings,ML81944554,N,Y,37.3224608,-122.0307813
MLS Listing,,Single Family Residential,2774 Stacia Dr,San Jose,CA,95124,1999000,3,2.5,SAN JOSE,2002,8525,1960,1,999,,Active,October-14-2023 01:00 PM,October-14-2023 04:00 PM,https://www.redfin.com/CA/San-Jose/2774-Stacia-Dr-95124/home/1581086,MLSListings,ML81944550,N,Y,37.2727303,-121.9093341
MLS Listing,,Mobile/Manufactured Home,5450 Monterey Rd #97,San Jose,CA,95111,318000,2,2.0,SAN JOSE,1440,,1975,1,221,,Active,,,https://www.redfin.com/CA/San-Jose/5450-Monterey-Hwy-95111/unit-97/home/145361424,MLSListings,ML81944548,N,Y,37.2588917,-121.8011412
MLS Listing,,Condo/Co-op,640 Forest Ave Unit C,Palo Alto,CA,94301,1328000,2,2.0,PALO ALTO,1154,,1959,1,1151,640,Active,October-14-2023 02:00 PM,October-14-2023 04:00 PM,https://www.redfin.com/CA/Palo-Alto/640-Forest-Ave-94301/unit-C/home/1574674,MLSListings,ML81944546,N,Y,37.4482905,-122.1546478
MLS Listing,,Single Family Residential,8138 Cinnabar Hills Rd,San Jose,CA,95120,4999000,5,5.0,SAN JOSE,4752,248292,2023,1,1052,,Active,October-12-2023 04:00 PM,October-12-2023 07:00 PM,https://www.redfin.com/CA/San-Jose/8138-Cinnabar-Hills-Rd-95120/home/160969084,MLSListings,ML81944544,N,Y,37.176933,-121.814851
MLS Listing,,Townhouse,1647 Dennis Ave,Milpitas,CA,95035,758000,3,1.5,Milpitas,1146,815,1970,1,661,350,Active,October-14-2023 01:00 PM,October-14-2023 04:00 PM,https://www.redfin.com/CA/Milpitas/1647-Dennis-Ave-95035/home/1314415,MetroList,223095668,N,Y,37.44056,-121.8782403
MLS Listing,,Single Family Residential,852 Buchser Way,San Jose,CA,95125,1699950,3,2.0,SAN JOSE,1451,7466,1971,2,1172,,Active,October-14-2023 01:00 PM,October-14-2023 04:00 PM,https://www.redfin.com/CA/San-Jose/852-Buchser-Way-95125/home/839969,MLSListings,ML81944543,N,Y,37.3048939,-121.8904803
MLS Listing,,Single Family Residential,6314 Camino Verde Dr,San Jose,CA,95119,1699888,4,2.5,SAN JOSE,2124,6254,1972,2,800,33,Active,October-14-2023 01:00 PM,October-14-2023 04:00 PM,https://www.redfin.com/CA/San-Jose/6314-Camino-Verde-Dr-95119/home/1380161,MLSListings,ML81944539,N,Y,37.2313207,-121.7985825
MLS Listing,,Single Family Residential,301 Pine Way,Mountain View,CA,94041,1998000,3,3.5,MOUNTAIN VIEW,1748,1566,2014,2,1143,142,Active,,,https://www.redfin.com/CA/Mountain-View/301-Pine-Way-94041/home/95955078,MLSListings,ML81944530,N,Y,37.3917325,-122.0730568
MLS Listing,,Mobile/Manufactured Home,130 Timber Cove Dr #130,Campbell,CA,95008,449000,3,2.0,CAMPBELL,1420,,2019,2,316,,Active,,,https://www.redfin.com/CA/Campbell/130-Timber-Cove-Dr-95008/unit-130/home/187901957,MLSListings,ML81944516,N,Y,37.2758659,-121.9481432
MLS Listing,,Single Family Residential,1433 Glacier Dr,San Jose,CA,95118,1425000,3,2.0,SAN JOSE,1359,6195,1965,2,1049,,Active,,,https://www.redfin.com/CA/San-Jose/1433-Glacier-Dr-95118/home/997928,MLSListings,ML81942037,N,Y,37.2630887,-121.8899106
MLS Listing,,Townhouse,202 Malley Way,Campbell,CA,95008,1725000,4,3.5,CAMPBELL,2166,1470,2018,2,796,386,Active,October-14-2023 01:00 PM,October-14-2023 04:00 PM,https://www.redfin.com/CA/Campbell/202-Malley-Way-95008/home/160806617,MLSListings,ML81943701,N,Y,37.283126,-121.9438898
MLS Listing,,Single Family Residential,5645 Rotterdam Ln,San Jose,CA,95118,1399000,3,2.0,SAN JOSE,1189,6010,1960,2,1177,,Active,October-11-2023 04:00 PM,October-11-2023 06:00 PM,https://www.redfin.com/CA/San-Jose/5645-Rotterdam-Ln-95118/home/1454812,MLSListings,ML81943691,N,Y,37.2401405,-121.8905247
MLS Listing,,Single Family Residential,1118 Pecos Way,Sunnyvale,CA,94089,1298000,3,2.0,SUNNYVALE,1108,6062,1958,2,1171,,Active,October-14-2023 01:00 PM,October-14-2023 04:00 PM,https://www.redfin.com/CA/Sunnyvale/1118-Pecos-Way-94089/home/583118,MLSListings,ML81944508,N,Y,37.3978896,-121.9943403
MLS Listing,,Single Family Residential,1008 S Monroe St,San Jose,CA,95128,1936000,4,3.0,SAN JOSE,1884,8262,1954,2,1028,,Active,October-13-2023 03:00 PM,October-13-2023 06:00 PM,https://www.redfin.com/CA/San-Jose/1008-S-Monroe-St-95128/home/1514789,MLSListings,ML81944505,N,Y,37.3089388,-121.9431781
MLS Listing,,Single Family Residential,1030 Drexel Way,San Jose,CA,95121,1095000,3,2.0,SAN JOSE,1452,6661,1967,2,754,,Active,,,https://www.redfin.com/CA/San-Jose/1030-Drexel-Way-95121/home/1665826,MLSListings,ML81944501,N,Y,37.306207,-121.8319966
MLS Listing,,Single Family Residential,1621 Avenida De Los Padres,Morgan Hill,CA,95037,2294000,4,3.5,MORGAN HILL,3577,9391,2007,2,641,77,Active,,,https://www.redfin.com/CA/Morgan-Hill/1621-Avenida-de-los-Padres-95037/home/17291660,MLSListings,ML81939235,N,Y,37.1567371,-121.6404091
MLS Listing,,Single Family Residential,1579 Wakefield Ter,Los Altos,CA,94024,3150000,3,2.5,LOS ALTOS,2059,10044,1957,2,1530,,Active,October-13-2023 09:30 AM,October-13-2023 12:00 PM,https://www.redfin.com/CA/Los-Altos/1579-Wakefield-Ter-94024/home/743146,MLSListings,ML81944498,N,Y,37.3529134,-122.0692521
MLS Listing,,Townhouse,2391 Niemeyer Ct,San Jose,CA,95132,799000,3,1.5,SAN JOSE,1180,967,1977,2,677,200,Active,October-14-2023 01:00 PM,October-14-2023 04:00 PM,https://www.redfin.com/CA/San-Jose/2391-Niemeyer-Ct-95132/home/1214000,MLSListings,ML81944495,N,Y,37.3908341,-121.8655797
MLS Listing,,Condo/Co-op,425 1st St #23,Los Altos,CA,94022,2399000,1,2.0,LOS ALTOS,1336,,2023,2,1796,545,Active,,,https://www.redfin.com/CA/Los-Altos/425-1st-St-94022/unit-23/home/187896111,MLSListings,ML81944494,N,Y,37.3752705,-122.1154079
MLS Listing,,Mobile/Manufactured Home,1111 Morse Ave #148,Sunnyvale,CA,94089,399999,3,2.0,SUNNYVALE,1952,,2007,2,205,,Active,,,https://www.redfin.com/CA/Sunnyvale/1111-Morse-Ave-94089/unit-148/home/17290867,MLSListings,ML81944490,N,Y,37.4020179,-122.0162375
MLS Listing,,Single Family Residential,1210 Shady Dale Ave,Campbell,CA,95008,2148000,3,2.0,CAMPBELL,1506,10398,1956,2,1426,,Active,October-12-2023 05:00 PM,October-12-2023 07:00 PM,https://www.redfin.com/CA/Campbell/1210-Shady-Dale-Ave-95008/home/1437090,MLSListings,ML81939734,N,Y,37.2837834,-121.927867
MLS Listing,,Condo/Co-op,1105 Reed Ave Unit C,Sunnyvale,CA,94086,748800,2,1.0,SUNNYVALE,917,,1972,2,817,510,Active,October-14-2023 01:00 PM,October-14-2023 04:00 PM,https://www.redfin.com/CA/Sunnyvale/1105-Reed-Ave-94086/unit-C/home/1763937,MLSListings,ML81944483,N,Y,37.3674362,-121.9994264
MLS Listing,,Townhouse,187 Shelley Ave,Campbell,CA,95008,1088000,2,2.5,,1280,640,1981,2,850,399,Active,October-11-2023 11:00 AM,October-11-2023 01:30 PM,https://www.redfin.com/CA/Campbell/187-Shelley-Ave-95008/home/927599,"bridgeMLS, Bay East AOR, or Contra Costa AOR",41040124,N,Y,37.2642677,-121.9457961
MLS Listing,,Single Family Residential,6371 Almaden Rd,San Jose,CA,95120,2388888,5,4.0,SAN JOSE,2009,11310,1976,2,1189,,Active,October-11-2023 09:30 AM,October-11-2023 12:00 PM,https://www.redfin.com/CA/San-Jose/6371-Almaden-Rd-95120/home/930025,MLSListings,ML81936772,N,Y,37.2234905,-121.8655636
MLS Listing,,Single Family Residential,62 Pennsylvania Ave,Los Gatos,CA,95030,2850000,2,2.0,LOS GATOS,2083,4486,1967,2,1368,,Active,October-11-2023 09:30 AM,October-11-2023 12:30 PM,https://www.redfin.com/CA/Los-Gatos/62-Pennsylvania-Ave-95030/home/1329779,MLSListings,ML81943294,N,Y,37.2253613,-121.9885225
MLS Listing,,Townhouse,128 Altura Vis,Los Gatos,CA,95032,1598000,3,2.0,LOS GATOS,1440,2002,1975,2,1110,872,Active,October-14-2023 01:00 PM,October-14-2023 04:00 PM,https://www.redfin.com/CA/Los-Gatos/128-Altura-Vista-95032/home/1384420,MLSListings,ML81944030,N,Y,37.2599453,-121.9904011
MLS Listing,,Townhouse,18008 Navarra Ln,Morgan Hill,CA,95037,988000,4,3.5,MORGAN HILL,2086,1040,2017,2,474,361,Active,October-15-2023 01:00 PM,October-15-2023 04:00 PM,https://www.redfin.com/CA/Morgan-Hill/18008-Navarra-Ln-95037/home/167551243,MLSListings,ML81944470,N,Y,37.13736,-121.6596718
MLS Listing,,Single Family Residential,3887 La Selva Dr,Palo Alto,CA,94306,3088888,4,3.0,PALO ALTO,2132,5545,1975,2,1449,,Active,October-14-2023 01:30 PM,October-14-2023 04:30 PM,https://www.redfin.com/CA/Palo-Alto/3887-La-Selva-Dr-94306/home/605711,MLSListings,ML81944462,N,Y,37.4163052,-122.1305818
MLS Listing,,Condo/Co-op,906 La Barbera Dr,San Jose,CA,95126,660000,1,1.0,SAN JOSE,808,,1985,2,817,390,Active,October-11-2023 10:00 AM,October-11-2023 12:30 PM,https://www.redfin.com/CA/San-Jose/906-La-Barbera-Dr-95126/home/1497550,MLSListings,ML81944456,N,Y,37.3089099,-121.9189265
MLS Listing,,Single Family Residential,18720 HARLEIGH Dr,Saratoga,CA,95070,2598000,3,2.0,SARATOGA,1710,7934,1958,2,1519,,Active,,,https://www.redfin.com/CA/Saratoga/18720-Harleigh-Dr-95070/home/1251182,MLSListings,ML81943654,N,Y,37.269254,-121.9981893
MLS Listing,,Condo/Co-op,2177 Alum Rock Ave #211,San Jose,CA,95116,699999,2,2.0,SJOS - San Jose,1142,1689,2005,3,613,488,Active,October-14-2023 09:00 AM,October-14-2023 08:30 PM,https://www.redfin.com/CA/San-Jose/2177-Alum-Rock-Ave-95116/unit-211/home/2125628,CRMLS,PV23187912,N,Y,37.3579181,-121.8463424
MLS Listing,,Condo/Co-op,1049 N Abbott Ave,Milpitas,CA,95035,848888,3,2.0,MILPITAS,1174,,1979,3,723,710,Active,October-14-2023 02:00 PM,October-14-2023 04:00 PM,https://www.redfin.com/CA/Milpitas/1049-N-Abbott-Ave-95035/home/657143,MLSListings,ML81943540,N,Y,37.4423522,-121.917002
MLS Listing,,Condo/Co-op,5556 Cribari Cir,San Jose,CA,95135,499000,1,1.0,SAN JOSE,947,,1968,3,527,829,Active,,,https://www.redfin.com/CA/San-Jose/5556-Cribari-Cir-95135/home/962439,MLSListings,ML81944444,N,Y,37.292188,-121.754948
MLS Listing,,Condo/Co-op,38 N Almaden Blvd #1916,San Jose,CA,95110,758888,1,1.0,SAN JOSE,953,,2008,3,796,562,Active,October-13-2023 05:30 PM,October-13-2023 07:00 PM,https://www.redfin.com/CA/San-Jose/38-N-Almaden-Blvd-95110/unit-1916/home/17288497,MLSListings,ML81944437,N,Y,37.3348687,-121.8957681
MLS Listing,,Single Family Residential,1275 Magnolia Ave,San Jose,CA,95126,1399000,2,2.0,SAN JOSE,1194,5196,1915,3,1172,,Active,,,https://www.redfin.com/CA/San-Jose/1275-Magnolia-Ave-95126/home/1075362,MLSListings,ML81944435,N,Y,37.3322786,-121.9182214
MLS Listing,,Single Family Residential,2740 Gilham Way,San Jose,CA,95148,1459888,4,2.5,SAN JOSE,2199,4792,2004,3,664,,Active,,,https://www.redfin.com/CA/San-Jose/2740-Gilham-Way-95148/home/1190599,MLSListings,ML81944388,N,Y,37.3268363,-121.8006295
MLS Listing,,Single Family Residential,692 Jennings Dr,San Jose,CA,95111,1099000,5,4.0,SAN JOSE,1992,6203,1976,3,552,,Active,,,https://www.redfin.com/CA/San-Jose/692-Jennings-Dr-95111/home/897645,MLSListings,ML81943371,N,Y,37.2915032,-121.8273254
MLS Listing,,Single Family Residential,541 W 10th St,Gilroy,CA,95020,818000,3,2.0,Not Listed,1080,7038,1959,3,757,,Active,,,https://www.redfin.com/CA/Gilroy/541-W-10th-St-95020/home/1325770,"bridgeMLS, Bay East AOR, or Contra Costa AOR",41041393,N,Y,36.9985951,-121.5724762
MLS Listing,,Single Family Residential,17481 Holiday Dr,Morgan Hill,CA,95037,1150000,4,2.0,MORGAN HILL,2472,21140,1977,3,465,88,Active,,,https://www.redfin.com/CA/Morgan-Hill/17481-Holiday-Dr-95037/home/1750194,MLSListings,ML81944423,N,Y,37.1548022,-121.6045309
MLS Listing,,Condo/Co-op,2223 Summereve Ct,San Jose,CA,95122,538888,2,1.0,SAN JOSE,953,,1985,3,565,636,Active,October-14-2023 01:00 PM,October-14-2023 04:00 PM,https://www.redfin.com/CA/San-Jose/2223-Summereve-Ct-95122/home/1779854,MLSListings,ML81944419,N,Y,37.318556,-121.84158
MLS Listing,,Vacant Land,35005 Loma Chiquita Rd,Los Gatos,CA,95033,475000,,,LOS GATOS,,858132,,4,,,Active,,,https://www.redfin.com/CA/Los-Gatos/35005-Loma-Chiquita-Rd-95033/home/1635687,MLSListings,ML81944413,N,Y,37.108579,-121.837574
MLS Listing,,Single Family Residential,17897 Mozelle Ct,Los Gatos,CA,95033,995000,2,1.5,LOS GATOS,1229,7962,1930,4,810,115,Active,October-11-2023 11:30 AM,October-11-2023 02:00 PM,https://www.redfin.com/CA/Los-Gatos/17897-Mozelle-Ct-95033/home/930082,MLSListings,ML81943658,N,Y,37.1592771,-121.9815909
MLS Listing,,Single Family Residential,821 E Hedding St,San Jose,CA,95112,849000,2,1.0,SAN JOSE,878,6477,1928,4,967,,Active,,,https://www.redfin.com/CA/San-Jose/821-E-Hedding-St-95112/home/694769,MLSListings,ML81944410,N,Y,37.3615422,-121.8868343
MLS Listing,,Single Family Residential,634 Mohican Dr,San Jose,CA,95123,1650000,5,4.0,SAN JOSE,2427,6172,1963,4,680,,Active,,,https://www.redfin.com/CA/San-Jose/634-Mohican-Dr-95123/home/1651836,MLSListings,ML81944409,N,Y,37.2428508,-121.8367648
MLS Listing,,Townhouse,556 King George Ave,San Jose,CA,95136,1050000,3,3.5,COMMUNICATIONS HILL,1690,1690,2000,4,621,289,Active,,,https://www.redfin.com/CA/San-Jose/556-King-George-Ave-95136/home/1163020,"bridgeMLS, Bay East AOR, or Contra Costa AOR",41041379,N,Y,37.2823769,-121.858813
MLS Listing,,Single Family Residential,1655 W Edmundson Ave,Morgan Hill,CA,95037,2198800,3,3.5,MORGAN HILL,3719,373744,2023,4,591,,Active,,,https://www.redfin.com/CA/Morgan-Hill/1655-W-Edmundson-Ave-95037/home/185972863,MLSListings,ML81944400,N,Y,37.1014521,-121.6684993
MLS Listing,,Single Family Residential,3015 Senter Rd,San Jose,CA,95111,1067888,3,2.0,SAN JOSE,1593,5202,1960,4,670,,Active,October-14-2023 01:00 PM,October-14-2023 04:00 PM,https://www.redfin.com/CA/San-Jose/3015-Senter-Rd-95111/home/1479108,MLSListings,ML81944397,N,Y,37.2957767,-121.8361782
MLS Listing,,Single Family Residential,6117 Cahalan Ave,San Jose,CA,95123,1150000,3,2.0,SAN JOSE,1593,5763,1968,4,722,,Active,,,https://www.redfin.com/CA/San-Jose/6117-Cahalan-Ave-95123/home/1001972,MLSListings,ML81944396,N,Y,37.2382972,-121.8513488
MLS Listing,,Mobile/Manufactured Home,191 E El Camino Real Rd #302,Mountain View,CA,94040,190000,2,1.0,MOUNTAIN VIEW,900,,1974,4,211,,Active,,,https://www.redfin.com/CA/Mountain-View/191-El-Camino-Real-94040/unit-302/home/1379302,MLSListings,ML81944393,N,Y,37.3786032,-122.0690642
MLS Listing,,Mobile/Manufactured Home,144 F QUAIL HOLLOW Dr #144,San Jose,CA,95128,315800,2,2.0,SAN JOSE,1440,,1974,4,219,,Active,,,https://www.redfin.com/CA/San-Jose/144-Quail-Hollow-Dr-95128/unit-144/home/63745148,MLSListings,ML81944389,N,Y,37.2972935,-121.9360091
MLS Listing,,Single Family Residential,1475 Country Club Dr,Los Altos,CA,94024,9500000,4,6.0,LOS ALTOS,4971,30248,2015,4,1911,,Active,,,https://www.redfin.com/CA/Los-Altos/1475-Country-Club-Dr-94024/home/1226659,MLSListings,ML81944307,N,Y,37.3532993,-122.0949731
MLS Listing,,Single Family Residential,2416 Austin Pl,Santa Clara,CA,95050,1498000,3,2.0,Santa Clara,1170,6164,1955,4,1280,,Active,,,https://www.redfin.com/CA/Santa-Clara/2416-Austin-Pl-95050/home/982529,San Francisco MLS,423915187,N,Y,37.3371574,-121.9651077
MLS Listing,,Single Family Residential,22054 Clearwood Ct,Cupertino,CA,95014,2590000,3,2.0,OAKDELL RANCH,1661,8050,1965,4,1559,,Active,,,https://www.redfin.com/CA/Cupertino/22054-Clearwood-Ct-95014/home/1804913,"bridgeMLS, Bay East AOR, or Contra Costa AOR",41041364,N,Y,37.3232929,-122.0606845
MLS Listing,,Single Family Residential,1484 Keoncrest Ave,San Jose,CA,95110,839999,3,1.5,SAN JOSE,1148,5350,1953,4,732,,Active,,,https://www.redfin.com/CA/San-Jose/1484-Keoncrest-Ave-95110/home/1697967,MLSListings,ML81944386,N,Y,37.3628423,-121.9112868
MLS Listing,,Mobile/Manufactured Home,1225 Vienna Dr #48,Sunnyvale,CA,94089,240000,2,2.0,SUNNYVALE,1460,,1972,4,164,,Active,,,https://www.redfin.com/CA/Sunnyvale/1225-Vienna-Dr-94089/unit-48/home/187858293,MLSListings,ML81944383,N,Y,37.4015533,-121.9990511
MLS Listing,,Condo/Co-op,1445 Fruitdale Ave #215,San Jose,CA,95128,748800,2,2.0,SAN JOSE,1216,,2009,4,616,41,Active,,,https://www.redfin.com/CA/San-Jose/1445-Fruitdale-Ave-95128/unit-215/home/23048248,MLSListings,ML81944382,N,Y,37.3113172,-121.9162433
MLS Listing,,Single Family Residential,19689 Douglass Ln,Saratoga,CA,95070,6998000,5,4.5,SARATOGA,4699,35022,1973,5,1489,,Active,October-11-2023 09:30 AM,October-11-2023 12:30 PM,https://www.redfin.com/CA/Saratoga/19689-Douglass-Ln-95070/home/1026315,MLSListings,ML81944374,N,Y,37.2597908,-122.0168246
MLS Listing,,Single Family Residential,18470 Sobey Rd,Saratoga,CA,95070,3500000,3,2.0,SARATOGA,1993,45175,1941,5,1756,,Active,October-11-2023 09:30 AM,October-11-2023 12:30 PM,https://www.redfin.com/CA/Saratoga/18470-Sobey-Rd-95070/home/1805753,MLSListings,ML81941343,N,Y,37.2614979,-121.9939183
MLS Listing,,Single Family Residential,18510 Sobey Rd,Saratoga,CA,95070,3500000,4,2.5,SARATOGA,2225,43566,1952,5,1573,,Active,October-11-2023 09:30 AM,October-11-2023 12:30 PM,https://www.redfin.com/CA/Saratoga/18510-Sobey-Rd-95070/home/1791022,MLSListings,ML81941344,N,Y,37.2614247,-121.9944736
MLS Listing,,Single Family Residential,1726 Papyrus Ln,San Jose,CA,95126,1999999,4,2.5,SAN JOSE,1926,3416,2004,5,1038,212,Active,,,https://www.redfin.com/CA/San-Jose/1726-Papyrus-Ln-95126/home/1408318,MLSListings,ML81944365,N,Y,37.3349504,-121.9240889
MLS Listing,,Condo/Co-op,3181 Heather Ridge Dr,San Jose,CA,95136,775000,2,2.0,SAN JOSE,1067,,1989,5,726,585,Active,,,https://www.redfin.com/CA/San-Jose/3181-Heather-Ridge-Dr-95136/home/861438,MLSListings,ML81944359,N,Y,37.2814996,-121.860931
MLS Listing,,Single Family Residential,15555 ON ORBIT Dr,Saratoga,CA,95070,2998000,3,3.0,SARATOGA,3134,78237,1969,5,957,,Active,,,https://www.redfin.com/CA/Saratoga/15555-On-Orbit-Dr-95070/home/1480767,MLSListings,ML81943653,N,Y,37.2396414,-122.0425038
MLS Listing,,Single Family Residential,352 Grandpark Cir,San Jose,CA,95136,1198000,3,2.0,SAN JOSE,1303,5853,1972,5,919,,Active,,,https://www.redfin.com/CA/San-Jose/352-Grandpark-Cir-95136/home/1634050,MLSListings,ML81944354,N,Y,37.2686948,-121.8450747
MLS Listing,,Multi-Family (5+ Unit),1235 Parkington Ave,Sunnyvale,CA,94087,2899000,7,6.0,SUNNYVALE,3780,10200,1957,5,767,,Active,,,https://www.redfin.com/CA/Sunnyvale/1235-Parkington-Ave-94087/home/653674,MLSListings,ML81944350,N,Y,37.3698395,-122.0582005
MLS Listing,,Single Family Residential,795 W Taylor St,San Jose,CA,95126,799000,1,1.0,SAN JOSE,540,3954,1910,5,1480,,Active,,,https://www.redfin.com/CA/San-Jose/795-W-Taylor-St-95126/home/706860,MLSListings,ML81944351,N,Y,37.3399358,-121.9146542
MLS Listing,,Single Family Residential,640 Eagle Springs Ct,Morgan Hill,CA,95037,2888888,5,3.5,MORGAN HILL,4133,20166,1996,5,699,,Active,,,https://www.redfin.com/CA/Morgan-Hill/640-Eagle-Springs-Ct-95037/home/1014792,MLSListings,ML81944349,N,Y,37.1347388,-121.6714869
MLS Listing,,Single Family Residential,3641 Louis Rd,Palo Alto,CA,94303,5680000,4,3.5,PALO ALTO,3253,8700,2017,5,1746,,Active,,,https://www.redfin.com/CA/Palo-Alto/3641-Louis-Rd-94303/home/594978,"bridgeMLS, Bay East AOR, or Contra Costa AOR",41040911,N,Y,37.428977,-122.1094177
MLS Listing,,Mobile/Manufactured Home,555 Umbarger Rd #54,San Jose,CA,95111,289900,3,2.0,SAN JOSE,1230,,1999,5,236,,Active,,,https://www.redfin.com/CA/San-Jose/555-Umbarger-Rd-95111/unit-54/home/17495586,MLSListings,ML81944336,N,Y,37.3010619,-121.8442882
MLS Listing,,Single Family Residential,15727 Orange Blossom Ln,Los Gatos,CA,95032,2550000,3,1.5,LOS GATOS,1500,9194,1952,5,1700,,Active,October-14-2023 02:00 PM,October-14-2023 04:00 PM,https://www.redfin.com/CA/Los-Gatos/15727-Orange-Blossom-Ln-95032/home/717110,MLSListings,ML81944334,N,Y,37.2401073,-121.9565097
MLS Listing,,Condo/Co-op,500 W Middlefield Rd #169,Mountain View,CA,94043,578000,1,1.0,MOUNTAIN VIEW,720,797,1971,5,803,556,Active,,,https://www.redfin.com/CA/Mountain-View/500-W-Middlefield-Rd-94043/unit-169/home/1309332,MLSListings,ML81944327,N,Y,37.4005613,-122.0714561
MLS Listing,,Condo/Co-op,5419 Silver Vista Way,San Jose,CA,95138,1249900,2,2.0,SAN JOSE,1590,,1995,5,786,696,Active,October-14-2023 01:30 PM,October-14-2023 04:30 PM,https://www.redfin.com/CA/San-Jose/5419-Silver-Vista-Way-95138/home/797568,MLSListings,ML81944326,N,Y,37.279434,-121.766636
MLS Listing,,Mobile/Manufactured Home,4271 N First St #117,San Jose,CA,95134,285000,2,2.0,SAN JOSE,1245,,1980,5,229,,Active,,,https://www.redfin.com/CA/San-Jose/4271-N-First-St-95134/unit-117/home/98311375,MLSListings,ML81944318,N,Y,37.4184931,-121.9625417
MLS Listing,,Condo/Co-op,4608 Capay Dr #2,San Jose,CA,95118,655000,2,1.0,SAN JOSE,810,,1970,5,809,379,Active,October-14-2023 01:00 PM,October-14-2023 04:00 PM,https://www.redfin.com/CA/San-Jose/4608-Capay-Dr-95118/unit-2/home/1132031,MLSListings,ML81944314,N,Y,37.2595021,-121.8890323
MLS Listing,,Condo/Co-op,7690 Galloway Dr,San Jose,CA,95135,879900,2,2.0,SAN JOSE,1509,,1989,5,583,1102,Active,,,https://www.redfin.com/CA/San-Jose/7690-Galloway-Dr-95135/home/843886,MLSListings,ML81944312,N,Y,37.2909772,-121.7407055
MLS Listing,,Mobile/Manufactured Home,690 Persian Dr #52,Sunnyvale,CA,94085,489900,3,1.0,SUNNYVALE,1800,,2020,5,272,,Active,,,https://www.redfin.com/CA/Sunnyvale/690-Persian-Dr-94089/unit-52/home/184115636,MLSListings,ML81944311,N,Y,37.404684,-122.0073992
MLS Listing,,Single Family Residential,2464 Cory Ave,San Jose,CA,95128,2300000,3,3.5,SAN JOSE,1858,6225,2023,5,1238,,Active,,,https://www.redfin.com/CA/San-Jose/2464-Cory-Ave-95128/home/1436777,MLSListings,ML81944101,N,Y,37.3316284,-121.9489553
MLS Listing,,Single Family Residential,112 Los Gatos Blvd,Los Gatos,CA,95030,5178000,5,5.0,LOS GATOS,4247,7365,1916,5,1219,,Active,,,https://www.redfin.com/CA/Los-Gatos/112-Los-Gatos-Blvd-95030/home/1735147,MLSListings,ML81944298,N,Y,37.2223205,-121.9718168
MLS Listing,,Condo/Co-op,917 Apricot Ave Unit B,Campbell,CA,95008,625000,1,1.0,CAMPBELL,895,889,1980,5,698,617,Active,October-14-2023 01:00 PM,October-14-2023 04:00 PM,https://www.redfin.com/CA/Campbell/917-Apricot-Ave-95008/unit-B/home/1402626,MLSListings,ML81943732,N,Y,37.2837183,-121.9327783
MLS Listing,,Single Family Residential,16761 Leroy Ave,Los Gatos,CA,95032,2399000,4,3.0,LOS GATOS,1820,10978,1910,5,1318,,Active,,,https://www.redfin.com/CA/Los-Gatos/16761-Leroy-Ave-95032/home/1285318,MLSListings,ML81944278,N,Y,37.2379524,-121.9630121
MLS Listing,,Single Family Residential,525 Wool Dr,Milpitas,CA,95035,1299900,3,3.0,MILPITAS,1550,3900,1987,5,839,,Active,,,https://www.redfin.com/CA/Milpitas/525-Wool-Dr-95035/home/1709187,"bridgeMLS, Bay East AOR, or Contra Costa AOR",41041259,N,Y,37.4415195,-121.8895029
MLS Listing,,Single Family Residential,1425 Saint Francis Dr,San Jose,CA,95125,1998000,4,2.5,SAN JOSE,2234,9150,1953,5,894,,Active,,,https://www.redfin.com/CA/San-Jose/1425-Saint-Francis-Dr-95125/home/1085655,MLSListings,ML81944279,N,Y,37.2999064,-121.9179992
MLS Listing,,Single Family Residential,358 Fernando Ave,Palo Alto,CA,94306,1690000,1,1.0,PALO ALTO,672,2625,1966,5,2515,,Active,October-14-2023 01:30 PM,October-14-2023 04:30 PM,https://www.redfin.com/CA/Palo-Alto/358-Fernando-Ave-94306/home/600756,MLSListings,ML81944277,N,Y,37.4214785,-122.1343195
MLS Listing,,Single Family Residential,2744 Plummer Ave,San Jose,CA,95125,1699000,3,2.0,SAN JOSE,1632,9845,1954,5,1041,,Active,October-14-2023 01:00 PM,October-14-2023 04:00 PM,https://www.redfin.com/CA/San-Jose/2744-Plummer-Ave-95125/home/1260296,MLSListings,ML81944275,N,Y,37.2757469,-121.8940375
MLS Listing,,Single Family Residential,899 E St James St,San Jose,CA,95112,1049000,4,2.0,,1230,3420,1920,5,853,,Active,,,https://www.redfin.com/CA/San-Jose/899-E-Saint-James-St-95112/home/1404059,"bridgeMLS, Bay East AOR, or Contra Costa AOR",41041251,N,Y,37.347729,-121.8750062
MLS Listing,,Single Family Residential,1448 Branham Ln,San Jose,CA,95118,1299000,3,2.0,SAN JOSE,1232,6240,1963,5,1054,,Active,,,https://www.redfin.com/CA/San-Jose/1448-Branham-Ln-95118/home/923894,MLSListings,ML81944271,N,Y,37.2583149,-121.8918759
MLS Listing,,Condo/Co-op,2047 Montecito Ave #11,Mountain View,CA,94043,895000,2,1.5,MOUNTAIN VIEW,1000,526,1964,5,895,574,Active,,,https://www.redfin.com/CA/Mountain-View/2047-Montecito-Ave-94043/unit-11/home/820872,MLSListings,ML81944269,N,Y,37.405676,-122.094529
MLS Listing,,Condo/Co-op,5877 Lake Almanor Dr,San Jose,CA,95123,699000,2,1.0,SAN JOSE,852,,1988,5,820,455,Active,October-14-2023 01:00 PM,October-14-2023 04:00 PM,https://www.redfin.com/CA/San-Jose/5877-Lake-Almanor-Dr-95123/home/1000762,MLSListings,ML81943778,N,Y,37.245011,-121.867201
MLS Listing,,Townhouse,2149 Junction Ave #12,Mountain View,CA,94043,1998000,4,3.5,MOUNTAIN VIEW,2498,1038,1984,5,800,500,Active,October-13-2023 09:00 AM,October-13-2023 12:00 PM,https://www.redfin.com/CA/Mountain-View/2149-Junction-Ave-94043/unit-12/home/1591076,MLSListings,ML81944067,N,Y,37.4097781,-122.094683
MLS Listing,,Single Family Residential,588 Hyde Park Dr,San Jose,CA,95136,1599000,4,2.5,SAN JOSE,2124,6236,1973,5,753,,Active,October-14-2023 01:00 PM,October-14-2023 04:00 PM,https://www.redfin.com/CA/San-Jose/588-Hyde-Park-Dr-95136/home/1757048,MLSListings,ML81944260,N,Y,37.2582071,-121.8515556
MLS Listing,,Townhouse,2411 Falk Ct,San Jose,CA,95116,698000,2,2.0,SAN JOSE,1091,725,2003,5,640,240,Active,,,https://www.redfin.com/CA/San-Jose/2411-Falk-Ct-95116/home/791771,MLSListings,ML81944253,N,Y,37.3623145,-121.8439992
MLS Listing,,Single Family Residential,924 Oakdell Pl,San Jose,CA,95117,1998888,3,2.0,SAN JOSE,1712,11698,1960,5,1168,,Active,,,https://www.redfin.com/CA/San-Jose/924-Oakdell-Pl-95117/home/846739,MLSListings,ML81944244,N,Y,37.3101358,-121.9575095
MLS Listing,,Single Family Residential,6088 Cahalan Ave,San Jose,CA,95123,1299000,3,2.0,Not Listed,1576,6400,1967,5,824,,Active,,,https://www.redfin.com/CA/San-Jose/6088-Cahalan-Ave-95123/home/1600223,"bridgeMLS, Bay East AOR, or Contra Costa AOR",41041233,N,Y,37.239161,-121.8503152
MLS Listing,,Single Family Residential,413 Curie Dr,San Jose,CA,95123,1400000,3,2.0,SAN JOSE,1617,5562,1969,5,866,,Active,,,https://www.redfin.com/CA/San-Jose/413-Curie-Dr-95123/home/876846,MLSListings,ML81944078,N,Y,37.2281093,-121.8083141
MLS Listing,,Single Family Residential,15695 La Jolla Ct,Morgan Hill,CA,95037,1099000,3,2.0,MORGAN HILL,1575,7000,1977,5,698,,Active,,,https://www.redfin.com/CA/Morgan-Hill/15695-La-Jolla-Ct-95037/home/1190136,MLSListings,ML81942927,N,Y,37.1076438,-121.643261
MLS Listing,,Single Family Residential,982 Steinway Ave,Campbell,CA,95008,1879000,3,2.0,CAMPBELL,1326,6089,1961,5,1417,,Active,,,https://www.redfin.com/CA/Campbell/982-Steinway-Ave-95008/home/1632952,MLSListings,ML81944234,N,Y,37.2667197,-121.9671504
MLS Listing,,Condo/Co-op,801 S Winchester Blvd #4204,San Jose,CA,95128,859000,2,2.0,SAN JOSE,1022,1424,2005,5,841,399,Active,,,https://www.redfin.com/CA/San-Jose/801-S-Winchester-Blvd-95128/unit-4204/home/2125411,MLSListings,ML81944231,N,Y,37.3130055,-121.9503845
MLS Listing,,Mobile/Manufactured Home,1220 Tasman Dr #553,Sunnyvale,CA,94089,430000,3,2.0,SUNNYVALE,1620,,2018,5,265,,Active,,,https://www.redfin.com/CA/Sunnyvale/1220-Tasman-Dr-94089/unit-553/home/22659222,MLSListings,ML81944228,N,Y,37.4017492,-121.9932677
MLS Listing,,Single Family Residential,1809 LA Porte Ave,San Jose,CA,95122,1150000,3,2.0,HILLVIEW,1292,5150,1959,5,890,,Active,,,https://www.redfin.com/CA/San-Jose/1809-La-Porte-Ave-95122/home/892168,"bridgeMLS, Bay East AOR, or Contra Costa AOR",41041222,N,Y,37.3347034,-121.8340429
MLS Listing,,Single Family Residential,2619 Meridian Ave,San Jose,CA,95124,1599999,3,2.0,SAN JOSE,1569,6182,1960,5,1020,,Active,,,https://www.redfin.com/CA/San-Jose/2619-Meridian-Ave-95124/home/1142787,MLSListings,ML81944220,N,Y,37.2755937,-121.9094864
MLS Listing,,Mobile/Manufactured Home,8282 Murray Ave #27,Gilroy,CA,95020,175000,2,1.0,GILROY,800,,1970,5,219,,Active,,,https://www.redfin.com/CA/Gilroy/8282-Murray-Ave-95020/unit-27/home/177932569,MLSListings,ML81944219,N,Y,37.0188446,-121.5687306
MLS Listing,,Mobile/Manufactured Home,2904 Moss Hollow Dr #2904,San Jose,CA,95121,300000,2,2.0,SAN JOSE,1680,,1977,5,179,,Active,,,https://www.redfin.com/CA/San-Jose/2904-Moss-Hollow-Dr-95121/unit-2904/home/187846990,MLSListings,ML81944213,N,Y,37.3140123,-121.8099293
MLS Listing,,Single Family Residential,2240 Ruby Ave,San Jose,CA,95148,1688888,5,2.5,SAN JOSE,2697,11491,1968,5,626,,Active,,,https://www.redfin.com/CA/San-Jose/2240-Ruby-Ave-95148/home/1239699,MLSListings,ML81944212,N,Y,37.3451529,-121.7896823
MLS Listing,,Townhouse,507 Clearview Dr,Los Gatos,CA,95032,1750000,3,3.0,LOS GATOS,2122,2220,1977,5,825,605,Active,,,https://www.redfin.com/CA/Los-Gatos/507-Clearview-Dr-95032/home/1063366,MLSListings,ML81944210,N,Y,37.2576379,-121.9685067
MLS Listing,,Single Family Residential,1399 Locust St,San Jose,CA,95110,895000,3,2.5,,1668,2896,1991,5,537,,Active,October-12-2023 11:00 AM,October-12-2023 01:00 PM,https://www.redfin.com/CA/San-Jose/1399-Locust-St-95110/home/1848963,"bridgeMLS, Bay East AOR, or Contra Costa AOR",41041200,N,Y,37.312242,-121.880244
MLS Listing,,Multi-Family (2-4 Unit),239 - 241 Florence St,Sunnyvale,CA,94086,1750000,5,2.0,Sunnyvale,2021,5998,1951,5,866,,Active,,,https://www.redfin.com/CA/Sunnyvale/239-Florence-St-94086/home/742492,MetroList,223097542,N,Y,37.3766652,-122.0369854
MLS Listing,,Single Family Residential,6022 Jacques Dr,San Jose,CA,95123,1598888,4,2.0,SAN JOSE,1321,7269,1971,6,1210,,Active,,,https://www.redfin.com/CA/San-Jose/6022-Jacques-Dr-95123/home/739125,MLSListings,ML81943316,N,Y,37.2386184,-121.8421961
MLS Listing,,Single Family Residential,1111 Burntwood Ct,Sunnyvale,CA,94089,1350000,3,2.0,SUNNYVALE,1108,6175,1958,6,1218,,Active,,,https://www.redfin.com/CA/Sunnyvale/1111-Burntwood-Ct-94089/home/1411421,MLSListings,ML81944204,N,Y,37.3966244,-121.9944292
MLS Listing,,Single Family Residential,447 E Saint John St,San Jose,CA,95112,1025000,5,4.0,SAN JOSE,2003,2450,1900,6,512,,Active,,,https://www.redfin.com/CA/San-Jose/447-E-Saint-John-St-95112/home/1130352,MLSListings,ML81944203,N,Y,37.3422452,-121.8823878
MLS Listing,,Single Family Residential,2061 Limewood Dr,San Jose,CA,95132,1388000,3,2.0,,1634,6099,1964,6,849,,Active,,,https://www.redfin.com/CA/San-Jose/2061-Limewood-Dr-95132/home/1448810,"bridgeMLS, Bay East AOR, or Contra Costa AOR",41041189,N,Y,37.414848,-121.8689574
MLS Listing,,Condo/Co-op,500 W Middlefield Rd #173,Mountain View,CA,94043,595000,1,1.0,MOUNTAIN VIEW,720,,1971,6,826,556,Active,,,https://www.redfin.com/CA/Mountain-View/500-W-Middlefield-Rd-94043/unit-173/home/1659130,MLSListings,ML81944200,N,Y,37.401406825,-122.0702666
MLS Listing,,Single Family Residential,2538 Sugarplum Dr,San Jose,CA,95148,1170000,3,2.0,,1040,6180,1971,6,1125,,Active,,,https://www.redfin.com/CA/San-Jose/2538-Sugarplum-Dr-95148/home/952039,"bridgeMLS, Bay East AOR, or Contra Costa AOR",41041184,N,Y,37.3343882,-121.7960015
MLS Listing,,Multi-Family (2-4 Unit),3463 Princeton Way,Santa Clara,CA,95051,2650000,10,6.0,SANTA CLARA,3961,9352,1964,6,669,,Active,October-11-2023 06:00 PM,October-11-2023 07:00 PM,https://www.redfin.com/CA/Santa-Clara/3463-Princeton-Way-95051/home/187844427,MLSListings,ML81944199,N,Y,37.3374727,-121.9919809
MLS Listing,,Mobile/Manufactured Home,432 Los Encinos Ave #432,San Jose,CA,95134,295000,2,,SAN JOSE,1440,,1970,6,205,,Active,,,https://www.redfin.com/CA/San-Jose/432-Los-Encinos-Ave-95134/unit-432/home/21957095,MLSListings,ML81944197,N,Y,37.4149573,-121.9456445
MLS Listing,,Townhouse,3153 Payne Ave #11,San Jose,CA,95117,999000,3,2.5,SAN JOSE,1360,1546,1976,6,735,375,Active,,,https://www.redfin.com/CA/San-Jose/3153-Payne-Ave-95117/unit-11/home/749042,MLSListings,ML81944195,N,Y,37.3021691,-121.9514438
MLS Listing,,Condo/Co-op,1310 Saddle Rack St #327,San Jose,CA,95126,860000,2,2.0,SAN JOSE,1311,,2004,6,656,535,Active,,,https://www.redfin.com/CA/San-Jose/1310-Saddle-Rack-St-95126/unit-327/home/1049367,MLSListings,ML81944190,N,Y,37.319925,-121.9114869
MLS Listing,,Single Family Residential,547 Richmond Ave,San Jose,CA,95128,1399000,4,3.0,SAN JOSE,1789,7349,1949,6,782,,Active,October-11-2023 09:00 AM,October-11-2023 12:00 PM,https://www.redfin.com/CA/San-Jose/547-Richmond-Ave-95128/home/719746,MLSListings,ML81944177,N,Y,37.3183457,-121.9230665
MLS Listing,,Condo/Co-op,1902 Miraplaza Ct #33,Santa Clara,CA,95051,799999,2,2.0,SANTA CLARA,1041,,1986,6,768,476,Active,,,https://www.redfin.com/CA/Santa-Clara/1902-Miraplaza-Ct-95051/unit-33/home/1174904,MLSListings,ML81944187,N,Y,37.3576154,-121.9986268
MLS Listing,,Single Family Residential,335 Ronan Ave,Gilroy,CA,95020,998000,4,3.5,GILROY,2671,6450,2004,6,374,,Active,,,https://www.redfin.com/CA/Gilroy/335-Ronan-Ave-95020/home/1379417,"bridgeMLS, Bay East AOR, or Contra Costa AOR",41041168,N,Y,37.0253279,-121.5844089
MLS Listing,,Single Family Residential,158 Piazza Way,San Jose,CA,95127,1598000,4,3.0,,2216,10868,1976,6,721,,Active,,,https://www.redfin.com/CA/San-Jose/158-Piazza-Way-95127/home/988118,"bridgeMLS, Bay East AOR, or Contra Costa AOR",41041092,N,Y,37.3790698,-121.8151796
MLS Listing,,Single Family Residential,7225 Sleepy Creek Dr,San Jose,CA,95120,1250000,3,2.5,SAN JOSE,1470,2746,1985,6,850,72,Active,,,https://www.redfin.com/CA/San-Jose/7225-Sleepy-Creek-Dr-95120/home/1014634,MLSListings,ML81944180,N,Y,37.1995582,-121.827993
MLS Listing,,Single Family Residential,584 Folsom Cir,Milpitas,CA,95035,1249999,2,2.5,Milpitas,1459,2866,1983,6,857,315,Active,,,https://www.redfin.com/CA/Milpitas/584-Folsom-Cir-95035/home/558324,MetroList,223097390,N,Y,37.439791,-121.9034
MLS Listing,,Condo/Co-op,2980 Via Torino,Santa Clara,CA,95051,1498000,3,3.5,SANTA CLARA,1600,,2015,6,936,350,Active,,,https://www.redfin.com/CA/Santa-Clara/2980-Via-Torino-95051/home/112869383,MLSListings,ML81944176,N,Y,37.3416559,-121.9817058
MLS Listing,,Single Family Residential,1511 Bianca Way,Gilroy,CA,95020,640000,3,2.0,GILROY,1293,1175,2003,6,495,253,Active,,,https://www.redfin.com/CA/Gilroy/1511-Bianca-Way-95020/home/1823600,MLSListings,ML81939860,N,Y,37.0106616,-121.6003853
MLS Listing,,Single Family Residential,6370 Carsey Way,Gilroy,CA,95020,1475000,5,3.0,GILROY,2771,5096,2020,6,532,128,Active,October-14-2023 12:00 PM,October-14-2023 03:00 PM,https://www.redfin.com/CA/Gilroy/6370-Carsey-Way-95020/home/168911192,MLSListings,ML81944163,N,Y,36.9885993,-121.5860749
MLS Listing,,Single Family Residential,641 Spargur Dr,Los Altos,CA,94022,9399000,5,4.0,LOS ALTOS,6308,13493,2023,6,1490,,Active,,,https://www.redfin.com/CA/Los-Altos/641-Spargur-Dr-94022/home/1151017,MLSListings,ML81943207,N,Y,37.3875158,-122.0984346
MLS Listing,,Single Family Residential,233 West W Hemlock St,Sunnyvale,CA,94085,1338888,3,1.0,Sunnyvale,1315,9168,1953,6,1018,,Active,,,https://www.redfin.com/CA/Sunnyvale/233-W-Hemlock-Ave-94085/home/1823087,San Francisco MLS,423902574,N,Y,37.3971322,-122.0253415
MLS Listing,,Condo/Co-op,2601 Cortez Dr #1103,Santa Clara,CA,95051,690000,3,2.0,SANTA CLARA,974,,1972,6,708,369,Active,,,https://www.redfin.com/CA/Santa-Clara/2601-Cortez-Dr-95051/unit-1103/home/12179650,MLSListings,ML81939253,N,Y,37.3687907,-121.9743048
MLS Listing,,Townhouse,1032 Abruzzo Ln #3,San Jose,CA,95131,998000,2,2.0,SAN JOSE,1371,509,2017,6,728,286,Active,,,https://www.redfin.com/CA/San-Jose/1032-Abruzzo-Ln-95131/unit-3/home/167214077,MLSListings,ML81942306,N,Y,37.3723015,-121.8792752
MLS Listing,,Single Family Residential,1146 Minnesota Ave,San Jose,CA,95125,2300000,4,4.0,SAN JOSE,3288,4602,1951,6,700,,Active,,,https://www.redfin.com/CA/San-Jose/1146-Minnesota-Ave-95125/home/1582741,MLSListings,ML81944151,N,Y,37.302561,-121.8988834
MLS Listing,,Single Family Residential,13080 Haga Dr,San Jose,CA,95111,849000,2,1.0,SAN JOSE,1410,9236,1951,6,602,,Active,,,https://www.redfin.com/CA/San-Jose/13080-Haga-Dr-95111/home/1665723,MLSListings,ML81943352,N,Y,37.2868915,-121.8358223
MLS Listing,,Single Family Residential,3365 Pearltone Dr,San Jose,CA,95117,2199000,4,2.5,SAN JOSE,2317,10943,1965,6,949,,Active,,,https://www.redfin.com/CA/San-Jose/3365-Pearltone-Dr-95117/home/1631130,MLSListings,ML81943277,N,Y,37.3042224,-121.9568651
MLS Listing,,Townhouse,334 Dunsmuir Ter #1,Sunnyvale,CA,94085,1199000,3,3.0,SUNNYVALE,1150,557,1996,6,1043,399,Active,,,https://www.redfin.com/CA/Sunnyvale/334-Dunsmuir-Ter-94085/unit-1/home/1447761,MLSListings,ML81942269,N,Y,37.3845808,-122.0312476
MLS Listing,,Condo/Co-op,190 Everett Ave,Palo Alto,CA,94301,998000,2,1.0,PALO ALTO,776,776,1963,6,1286,375,Active,,,https://www.redfin.com/CA/Palo-Alto/190-Everett-Ave-94301/home/1704161,MLSListings,ML81944136,N,Y,37.4460074,-122.1653773
MLS Listing,,Single Family Residential,1317 Weaver Dr,San Jose,CA,95125,2599000,4,2.0,SAN JOSE,2884,12930,1951,6,901,,Active,,,https://www.redfin.com/CA/San-Jose/1317-Weaver-Dr-95125/home/839577,MLSListings,ML81944134,N,Y,37.3020527,-121.9102866
MLS Listing,,Single Family Residential,2906 Mitton Dr,San Jose,CA,95148,1698000,3,2.5,SAN JOSE,1798,8797,1985,6,944,,Active,,,https://www.redfin.com/CA/San-Jose/2906-Mitton-Dr-95148/home/1626966,MLSListings,ML81944129,N,Y,37.3319166,-121.7799802
MLS Listing,,Single Family Residential,1228 Gainsville Ave,San Jose,CA,95122,999900,4,2.0,SAN JOSE,1283,5039,1963,6,779,,Active,,,https://www.redfin.com/CA/San-Jose/1228-Gainsville-Ave-95122/home/1818103,MLSListings,ML81944127,N,Y,37.3444909,-121.8312403
MLS Listing,,Single Family Residential,5389 Armonk Ct,San Jose,CA,95123,1199000,3,2.5,SAN JOSE,1546,4992,1986,6,776,50,Active,,,https://www.redfin.com/CA/San-Jose/5389-Armonk-Ct-95123/home/777304,MLSListings,ML81942451,N,Y,37.2566411,-121.8096178
MLS Listing,,Single Family Residential,13920 Mirmirou Dr,Los Altos Hills,CA,94022,7198000,4,4.5,LOS ALTOS HILLS,4831,163645,1983,6,1490,,Active,,,https://www.redfin.com/CA/Los-Altos-Hills/13920-Mir-Mirou-Dr-94022/home/1669617,MLSListings,ML81944125,N,Y,37.3833894,-122.1689728
MLS Listing,,Single Family Residential,5718 Pontiac Dr,San Jose,CA,95123,1229888,3,1.5,SAN JOSE,1037,6026,1962,6,1186,,Active,,,https://www.redfin.com/CA/San-Jose/5718-Pontiac-Dr-95123/home/922773,MLSListings,ML81944023,N,Y,37.2469337,-121.8377034
MLS Listing,,Single Family Residential,1365 Wildman Dr,San Jose,CA,95127,1395888,4,2.5,SAN JOSE,2293,10124,1968,6,609,,Active,,,https://www.redfin.com/CA/San-Jose/1365-Wildman-Dr-95127/home/1481459,MLSListings,ML81944121,N,Y,37.3615429,-121.798627
MLS Listing,,Single Family Residential,11712 Winding Way,Los Altos,CA,94024,3095000,3,3.5,LOS ALTOS,2044,9447,1973,6,1514,,Active,,,https://www.redfin.com/CA/Los-Altos/11712-Winding-Way-94024/home/1216311,MLSListings,ML81944122,N,Y,37.3500725,-122.1064446
MLS Listing,,Single Family Residential,2324 Glendenning Ave,Santa Clara,CA,95050,1399000,3,2.0,SANTA CLARA,1080,6100,1954,6,1295,,Active,,,https://www.redfin.com/CA/Santa-Clara/2324-Glendenning-Ave-95050/home/752447,MLSListings,ML81942991,N,Y,37.3304681,-121.9559986
MLS Listing,,Single Family Residential,14846 Acton Dr,San Jose,CA,95124,2398000,4,3.0,SAN JOSE,2130,9697,1950,6,1126,,Active,,,https://www.redfin.com/CA/San-Jose/14846-Acton-Dr-95124/home/1295231,MLSListings,ML81944119,N,Y,37.2530264,-121.9232666
MLS Listing,,Single Family Residential,1890 Matos Ct,Santa Clara,CA,95050,899000,3,2.5,SANTA CLARA,1163,1246,1983,6,773,405,Active,October-14-2023 01:30 PM,October-14-2023 04:30 PM,https://www.redfin.com/CA/Santa-Clara/1890-Matos-Ct-95050/home/715034,MLSListings,ML81944118,N,Y,37.3418147,-121.9538768
MLS Listing,,Single Family Residential,666 Kellogg Ave,Palo Alto,CA,94301,3595000,3,2.0,PALO ALTO,2114,5962,1935,6,1701,,Active,October-14-2023 01:00 PM,October-14-2023 04:00 PM,https://www.redfin.com/CA/Palo-Alto/666-Kellogg-Ave-94301/home/589268,MLSListings,ML81944114,N,Y,37.4431427,-122.1458866
MLS Listing,,Single Family Residential,10435 Berkshire Dr,Los Altos Hills,CA,94024,4995000,4,3.0,LOS ALTOS HILLS,2591,87120,2008,6,1928,,Active,,,https://www.redfin.com/CA/Los-Altos/10435-Berkshire-Dr-94024/home/1754765,MLSListings,ML81944113,N,Y,37.3426954,-122.1057124
MLS Listing,,Condo/Co-op,3152 Heather Ridge Dr,San Jose,CA,95136,799900,1,1.0,SOUTH SAN JOSE,1012,1012,1989,6,790,564,Active,,,https://www.redfin.com/CA/San-Jose/3152-Heather-Ridge-Dr-95136/home/1265903,"bridgeMLS, Bay East AOR, or Contra Costa AOR",41041073,N,Y,37.281372,-121.861591
MLS Listing,,Single Family Residential,214 Oak Ct,Menlo Park,CA,94025,4788000,4,5.5,MENLO PARK,3157,9400,2023,6,1517,,Active,,,https://www.redfin.com/CA/Menlo-Park/214-Oak-Ct-94025/home/2056493,MLSListings,ML81944112,N,Y,37.4585735,-122.1505885
MLS Listing,,Single Family Residential,4144 Park Blvd,Palo Alto,CA,94306,2100000,3,1.0,PALO ALTO,1476,6625,1950,6,1423,,Active,,,https://www.redfin.com/CA/Palo-Alto/4144-Park-Blvd-94306/home/606885,MLSListings,ML81944111,N,Y,37.4149042,-122.1207323
MLS Listing,,Condo/Co-op,125 Evandale Ave Unit A,Mountain View,CA,94043,2099000,4,2.0,MOUNTAIN VIEW,1903,1432,1963,6,1103,400,Active,October-11-2023 05:00 PM,October-11-2023 07:00 PM,https://www.redfin.com/CA/Mountain-View/125-Evandale-Ave-94043/unit-A/home/563856,MLSListings,ML81943515,N,Y,37.4048741,-122.0606823
MLS Listing,,Single Family Residential,10460 McVay Ave,San Jose,CA,95127,1275000,4,2.0,SAN JOSE,1342,6747,1960,6,950,,Active,,,https://www.redfin.com/CA/San-Jose/10460-McVay-Ave-95127/home/718288,MLSListings,ML81942225,N,Y,37.3708966,-121.812599
MLS Listing,,Single Family Residential,741 Borregas Ave,Sunnyvale,CA,94085,999000,3,1.0,,851,5000,1953,6,1174,,Active,,,https://www.redfin.com/CA/Sunnyvale/741-Borregas-Ave-94085/home/1799141,"bridgeMLS, Bay East AOR, or Contra Costa AOR",41041065,N,Y,37.3951115,-122.0238316
MLS Listing,,Single Family Residential,8318 Chianti Ct,San Jose,CA,95135,1598888,3,2.5,SAN JOSE,2201,22602,1979,6,726,475,Active,,,https://www.redfin.com/CA/San-Jose/8318-Chianti-Ct-95135/home/1768386,MLSListings,ML81944103,N,Y,37.2840726,-121.7453486
MLS Listing,,Single Family Residential,3413 Ross Rd,Palo Alto,CA,94303,2498000,3,2.0,PALO ALTO,1683,8312,1961,6,1484,,Active,,,https://www.redfin.com/CA/Palo-Alto/3413-Ross-Rd-94303/home/1374469,MLSListings,ML81943993,N,Y,37.4291511,-122.115896
MLS Listing,,Single Family Residential,1671 Morton Ave,Los Altos,CA,94024,3288000,4,2.5,LOS ALTOS,1868,10128,1958,6,1760,,Active,,,https://www.redfin.com/CA/Los-Altos/1671-Morton-Ave-94024/home/1307215,MLSListings,ML81944097,N,Y,37.348013,-122.0667321
MLS Listing,,Condo/Co-op,5527 Sean Cir #69,San Jose,CA,95123,599000,2,1.0,SAN JOSE,997,997,1979,6,601,509,Active,,,https://www.redfin.com/CA/San-Jose/5527-Sean-Cir-95123/unit-69/home/1371829,MLSListings,ML81930323,N,Y,37.2542,-121.8305054
MLS Listing,,Single Family Residential,1743 Aprilsong Ct,San Jose,CA,95131,1428880,4,2.0,SAN JOSE,1843,6439,1974,6,775,,Active,,,https://www.redfin.com/CA/San-Jose/1743-Aprilsong-Ct-95131/home/1671510,MLSListings,ML81943953,N,Y,37.3775792,-121.8742058
MLS Listing,,Single Family Residential,1191 Bracebridge Ct,Campbell,CA,95008,1569950,3,2.5,CAMPBELL,1728,4118,1979,6,909,,Active,October-14-2023 01:00 PM,October-14-2023 04:00 PM,https://www.redfin.com/CA/Campbell/1191-Bracebridge-Ct-95008/home/1432063,MLSListings,ML81944092,N,Y,37.2652285,-121.9709809
MLS Listing,,Condo/Co-op,100 1st St #207,Los Altos,CA,94022,2249000,1,1.5,LOS ALTOS,1156,,2015,6,1946,810,Active,,,https://www.redfin.com/CA/Los-Altos/100-1st-St-94022/unit-207/home/95956243,MLSListings,ML81940327,N,Y,37.3805823,-122.1202221
MLS Listing,,Single Family Residential,2450 New Jersey,San Jose,CA,95124,1799000,4,2.5,San Jose,2048,5798,1965,6,878,,Active,,,https://www.redfin.com/CA/San-Jose/2450-New-Jersey-Ave-95124/home/570672,MetroList,223040489,N,Y,37.2763423,-121.9278708
MLS Listing,,Townhouse,1015 Roy Ave,San Jose,CA,95125,1175000,2,2.5,SAN JOSE,1641,2184,1974,6,716,570,Active,,,https://www.redfin.com/CA/San-Jose/1015-Roy-Ave-95125/home/1794428,MLSListings,ML81944090,N,Y,37.288727,-121.8840284
MLS Listing,,Townhouse,1084 Doheny Ter,Sunnyvale,CA,94085,1488888,3,3.0,SUNNYVALE,1743,914,2012,6,854,307,Active,,,https://www.redfin.com/CA/Sunnyvale/1084-Doheny-Ter-94085/home/187831219,MLSListings,ML81944089,N,Y,37.3881597,-121.9969211
MLS Listing,,Single Family Residential,76 Jim Elder Dr,Campbell,CA,95008,1798000,4,2.0,CAMPBELL,1785,7055,1973,7,1007,,Active,October-11-2023 10:00 AM,October-11-2023 12:30 PM,https://www.redfin.com/CA/Campbell/76-Jim-Elder-Dr-95008/home/757400,MLSListings,ML81944087,N,Y,37.287869,-121.9636858
MLS Listing,,Single Family Residential,1362 Lansing Ave,San Jose,CA,95118,1050000,3,2.0,SAN JOSE,1232,6078,1964,7,852,,Active,,,https://www.redfin.com/CA/San-Jose/1362-Lansing-Ave-95118/home/923318,MLSListings,ML81944083,N,Y,37.2528998,-121.886305
MLS Listing,,Mobile/Manufactured Home,491 Lily Ann #491,San Jose,CA,95123,275000,2,2.0,SAN JOSE,1440,,1977,7,191,,Active,,,https://www.redfin.com/CA/San-Jose/165-Blossom-Hill-Rd-95123/unit-491/home/63742770,MLSListings,ML81944084,N,Y,37.252171,-121.809116
MLS Listing,,Single Family Residential,16219 Seaborn Ct,Monte Sereno,CA,95030,4995000,4,3.5,MONTE SERENO,3588,11686,2023,7,1392,,Active,,,https://www.redfin.com/CA/Monte-Sereno/16219-Seaborn-Ct-95030/home/181207192,MLSListings,ML81944081,N,Y,37.23362,-121.9872772
MLS Listing,,Single Family Residential,6754 Gentry Oaks Pl,San Jose,CA,95138,1699000,4,2.5,SAN JOSE,2060,4532,1997,7,825,,Active,,,https://www.redfin.com/CA/San-Jose/6754-Gentry-Oaks-Pl-95138/home/1619038,MLSListings,ML81944080,N,Y,37.2469772,-121.7625322
MLS Listing,,Single Family Residential,16221 Seaborn Ct,Monte Sereno,CA,95030,5195000,5,3.5,MONTE SERENO,3900,11425,2023,7,1332,,Active,,,https://www.redfin.com/CA/Monte-Sereno/16221-Seaborn-Ct-95030/home/181207193,MLSListings,ML81944077,N,Y,37.2335485,-121.9870773
MLS Listing,,Single Family Residential,541 Yurok Cir,San Jose,CA,95123,1258000,4,2.0,SAN JOSE,1345,8290,1966,7,935,,Active,,,https://www.redfin.com/CA/San-Jose/541-Yurok-Cir-95123/home/1749548,MLSListings,ML81944075,N,Y,37.2434638,-121.8323089
MLS Listing,,Mobile/Manufactured Home,1085 Tasman Dr #328,Sunnyvale,CA,94089,395000,3,2.0,SUNNYVALE,1643,,2001,7,240,,Active,,,https://www.redfin.com/CA/Sunnyvale/1085-Tasman-Dr-94089/unit-328/home/1035498,MLSListings,ML81944071,N,Y,37.405034,-121.9996432
MLS Listing,,Townhouse,1660 Hollowcreek Pl,San Jose,CA,95121,865000,3,2.5,SAN JOSE,1508,1466,1979,7,574,335,Active,,,https://www.redfin.com/CA/San-Jose/1660-Hollowcreek-Pl-95121/home/1236737,MLSListings,ML81944066,N,Y,37.3033988,-121.8099569
MLS Listing,,Single Family Residential,4269 Sayoko Cir,San Jose,CA,95136,1549000,5,3.0,SAN JOSE,2236,6796,1971,7,693,43,Active,,,https://www.redfin.com/CA/San-Jose/4269-Sayoko-Cir-95136/home/1315817,MLSListings,ML81944063,N,Y,37.2709625,-121.8375163
MLS Listing,,Single Family Residential,1974 Channing Ave,Palo Alto,CA,94303,2850000,4,2.0,PALO ALTO,1607,6050,1953,7,1773,,Active,,,https://www.redfin.com/CA/Palo-Alto/1974-Channing-Ave-94303/home/545230,MLSListings,ML81943532,N,Y,37.4482571,-122.1283414
MLS Listing,,Multi-Family (2-4 Unit),116 Nancy Ct,Mountain View,CA,94041,2388000,5,3.0,MOUNTAIN VIEW,2338,9254,1953,7,1021,,Active,,,https://www.redfin.com/CA/Mountain-View/116-Nancy-Ct-94041/home/1507706,MLSListings,ML81943351,N,Y,37.385309,-122.073238
MLS Listing,,Single Family Residential,856 Nevada Ave,San Jose,CA,95125,1799000,3,2.0,SAN JOSE,1584,5731,1931,7,1136,,Active,,,https://www.redfin.com/CA/San-Jose/856-Nevada-Ave-95125/home/1327409,MLSListings,ML81941931,N,Y,37.3035813,-121.889591
MLS Listing,,Single Family Residential,12155 Mount Hamilton Rd,San Jose,CA,95140,3899000,5,3.5,SAN JOSE,3782,108003,1951,7,1031,,Active,,,https://www.redfin.com/CA/San-Jose/12155-Mount-Hamilton-Rd-95140/home/759715,MLSListings,ML81944050,N,Y,37.3746255,-121.800763
MLS Listing,,Single Family Residential,13585 Sycamore Dr,Morgan Hill,CA,95037,1799950,3,2.0,MORGAN HILL,2909,51740,1940,7,619,,Active,,,https://www.redfin.com/CA/Morgan-Hill/13585-Sycamore-Dr-95037/home/1788537,MLSListings,ML81943669,N,Y,37.0690849,-121.6675998
MLS Listing,,Single Family Residential,411 Castro Ct,Campbell,CA,95008,1798000,3,2.0,CAMPBELL,1248,9000,1959,7,1441,,Active,,,https://www.redfin.com/CA/Campbell/411-Castro-Ct-95008/home/828985,MLSListings,ML81944044,N,Y,37.2907473,-121.9804802
MLS Listing,,Condo/Co-op,1101 S Main St #303,Milpitas,CA,95035,775000,2,2.0,MILPITAS,1146,,2007,7,676,629,Active,,,https://www.redfin.com/CA/Milpitas/1101-S-Main-St-95035/unit-303/home/167192904,MLSListings,ML81944042,N,Y,37.4134676,-121.9025407
MLS Listing,,Single Family Residential,1251 Malone Rd,San Jose,CA,95125,1698000,3,2.0,SAN JOSE,1408,6663,1947,7,1206,,Active,,,https://www.redfin.com/CA/San-Jose/1251-Malone-Rd-95125/home/1385331,MLSListings,ML81944040,N,Y,37.2916154,-121.894882
MLS Listing,,Vacant Land,20245 Gist Rd,Los Gatos,CA,95033,750000,,,LOS GATOS,,168071,,7,,,Active,,,https://www.redfin.com/CA/Los-Gatos/20245-Gist-Rd-95033/home/21620182,MLSListings,ML81944039,N,Y,37.19244,-122.028952
MLS Listing,,Single Family Residential,219 N White Rd,San Jose,CA,95127,1049000,3,2.0,SAN JOSE,1281,6138,1959,7,819,,Active,,,https://www.redfin.com/CA/San-Jose/219-N-White-Rd-95127/home/903510,MLSListings,ML81944034,N,Y,37.3727568,-121.8341319
MLS Listing,,Single Family Residential,2586 Cottle Ave,San Jose,CA,95125,2599000,3,3.0,SAN JOSE,2457,15777,1951,7,1058,,Active,,,https://www.redfin.com/CA/San-Jose/2586-Cottle-Ave-95125/home/840634,MLSListings,ML81943849,N,Y,37.2810782,-121.8889463
MLS Listing,,Single Family Residential,6268 Hokett Way,San Jose,CA,95123,1395000,3,2.0,SAN JOSE,1625,7115,1968,7,858,,Active,,,https://www.redfin.com/CA/San-Jose/6268-Hokett-Way-95123/home/1233723,MLSListings,ML81944029,N,Y,37.2317765,-121.8396345
MLS Listing,,Townhouse,525 Lundy Pl,Milpitas,CA,95035,1501995,3,2.5,,1948,,2023,7,771,434,Active,October-14-2023 11:00 AM,October-14-2023 04:00 PM,https://www.redfin.com/CA/Milpitas/525-Lundy-Pl-95035/home/186423332,"bridgeMLS, Bay East AOR, or Contra Costa AOR",41040987,N,Y,37.4047956,-121.8903304
MLS Listing,,Single Family Residential,1200 Hersman Dr,Gilroy,CA,95020,940000,3,1.75,Gilroy,1526,7021,,7,616,,Active,,,https://www.redfin.com/CA/Gilroy/1200-Hersman-Dr-95020/home/1334054,FRESNOMLS,602925,N,Y,37.004396,-121.5923471
MLS Listing,,Single Family Residential,524 Rutland Ave,San Jose,CA,95128,1098000,2,1.0,SAN JOSE,1087,5067,1939,7,1010,,Active,,,https://www.redfin.com/CA/San-Jose/524-Rutland-Ave-95128/home/1738266,MLSListings,ML81942913,N,Y,37.3189996,-121.9256446
MLS Listing,,Single Family Residential,2409 Laura Ln,Mountain View,CA,94043,1798000,3,2.0,MOUNTAIN VIEW,1008,5625,1955,7,1784,,Active,,,https://www.redfin.com/CA/Mountain-View/2409-Laura-Ln-94043/home/1486844,MLSListings,ML81941410,N,Y,37.4075067,-122.0994775
MLS Listing,,Single Family Residential,2254 Richland Ave,San Jose,CA,95125,1348000,2,2.0,SAN JOSE,1437,6257,1940,7,938,,Active,,,https://www.redfin.com/CA/San-Jose/2254-Richland-Ave-95125/home/1467501,MLSListings,ML81944018,N,Y,37.288624,-121.8904358
MLS Listing,,Single Family Residential,1250 Elkwood Dr,Milpitas,CA,95035,1399950,4,2.5,MILPITAS,1867,3221,1991,7,750,,Active,,,https://www.redfin.com/CA/Milpitas/1250-Elkwood-Dr-95035/home/727723,MLSListings,ML81944015,N,Y,37.447981,-121.913954
MLS Listing,,Single Family Residential,16313 Juan Hernandez Dr,Morgan Hill,CA,95037,1388888,4,2.5,MORGAN HILL,2221,6410,1999,7,625,,Active,October-14-2023 01:00 PM,October-14-2023 04:00 PM,https://www.redfin.com/CA/Morgan-Hill/16313-Juan-Hernandez-Dr-95037/home/1300870,MLSListings,ML81943858,N,Y,37.1227114,-121.6324322
MLS Listing,,Single Family Residential,1668 Nightingale Ave,Sunnyvale,CA,94087,1988000,3,2.0,SUNNYVALE,1266,6480,1959,7,1570,,Active,,,https://www.redfin.com/CA/Sunnyvale/1668-Nightingale-Ave-94087/home/763497,MLSListings,ML81944013,N,Y,37.3398144,-122.0121515
MLS Listing,,Single Family Residential,886 Nantucket Ct,Sunnyvale,CA,94087,3188000,5,4.0,SUNNYVALE,3226,8760,1963,7,988,,Active,,,https://www.redfin.com/CA/Sunnyvale/886-Nantucket-Ct-94087/home/1009730,MLSListings,ML81944011,N,Y,37.3607951,-122.0494967
MLS Listing,,Townhouse,1355 Mcquesten Dr Unit C,San Jose,CA,95122,598000,3,1.5,SAN JOSE,1150,650,1980,7,520,440,Active,,,https://www.redfin.com/CA/San-Jose/1355-McQuesten-Dr-95122/unit-C/home/1253142,MLSListings,ML81943906,N,Y,37.3301104,-121.8471208
MLS Listing,,Single Family Residential,16440 Soda Springs Rd,Los Gatos,CA,95033,2225000,5,4.0,LOS GATOS,3367,233481,1990,7,661,,Active,,,https://www.redfin.com/CA/Los-Gatos/16440-Soda-Springs-Rd-95033/home/1269590,MLSListings,ML81944002,N,Y,37.1713764,-121.9409338
MLS Listing,,Condo/Co-op,422 Crescent Ave #16,Sunnyvale,CA,94087,1178000,2,2.0,SUNNYVALE,1310,,1982,7,899,585,Active,,,https://www.redfin.com/CA/Sunnyvale/422-Crescent-Ave-94087/unit-16/home/822069,MLSListings,ML81944009,N,Y,37.3552516,-122.0300964
MLS Listing,,Single Family Residential,2184 Nola Dr,San Jose,CA,95125,1699000,3,2.5,SAN JOSE,1925,8447,1968,7,883,,Active,,,https://www.redfin.com/CA/San-Jose/2184-Nola-Dr-95125/home/847806,MLSListings,ML81943918,N,Y,37.2870658,-121.900395
MLS Listing,,Condo/Co-op,1853 Almaden Rd #414,San Jose,CA,95125,591800,1,1.0,SAN JOSE,646,,2023,7,916,578,Active,,,https://www.redfin.com/CA/San-Jose/1853-Almaden-Rd-95125/unit-414/home/172950418,MLSListings,ML81944006,N,Y,37.3018575,-121.8801978
MLS Listing,,Single Family Residential,10080 Bret Ave,Cupertino,CA,95014,5180000,5,5.5,CUPERTINO,3780,9375,2023,7,1370,,Active,,,https://www.redfin.com/CA/Cupertino/10080-Bret-Ave-95014/home/1056934,MLSListings,ML81944005,N,Y,37.3217805,-122.0041346
MLS Listing,,Townhouse,809 Galt Ter #2,Sunnyvale,CA,94085,1598000,3,3.0,SUNNYVALE,1851,739,2018,7,863,394,Active,October-14-2023 01:30 PM,October-14-2023 04:30 PM,https://www.redfin.com/CA/Sunnyvale/809-Galt-Ter-94085/unit-2/home/167209702,MLSListings,ML81944001,N,Y,37.3869202,-122.0087538
MLS Listing,,Single Family Residential,7585 Prospect Rd,Cupertino,CA,95014,2800000,4,2.5,CUPERTINO,1758,6043,1968,7,1593,,Active,,,https://www.redfin.com/CA/Cupertino/7585-Prospect-Rd-95014/home/1646765,MLSListings,ML81942645,N,Y,37.293917,-122.0382412
MLS Listing,,Townhouse,3152 Middlefield Rd,Palo Alto,CA,94306,1048000,2,1.5,PALO ALTO,998,,1963,7,1050,460,Active,,,https://www.redfin.com/CA/Palo-Alto/3152-Middlefield-Rd-94306/home/1276805,MLSListings,ML81942493,N,Y,37.429388,-122.123697
MLS Listing,,Other,0 Mt Eden Rd,Saratoga,CA,95070,11999786,,,SARATOGA,,1232398,,7,,,Active,,,https://www.redfin.com/CA/Saratoga/Mount-Eden-Rd-95070/home/113792884,MLSListings,ML81943999,N,Y,37.2745565,-122.0628618
MLS Listing,,Townhouse,66 Parc Place Dr,Milpitas,CA,95035,1099000,3,2.0,MILPITAS,1530,527,2005,7,718,318,Active,,,https://www.redfin.com/CA/Milpitas/66-Parc-Place-Dr-95035/home/1363226,MLSListings,ML81939487,N,Y,37.419626,-121.901994
MLS Listing,,Townhouse,421 Chagall St,Mountain View,CA,94041,1500000,3,3.5,MOUNTAIN VIEW,1560,797,2012,7,962,373,Active,,,https://www.redfin.com/CA/Mountain-View/421-Chagall-St-94041/home/28895214,MLSListings,ML81943994,N,Y,37.3867881,-122.0568602
MLS Listing,,Townhouse,580 De Guigne Dr,Sunnyvale,CA,94085,1350000,3,3.5,SUNNYVALE,1374,856,2010,7,983,422,Active,,,https://www.redfin.com/CA/Sunnyvale/580-De-Guigne-Dr-94085/home/23048121,MLSListings,ML81943990,N,Y,37.3875199,-122.0036608
MLS Listing,,Single Family Residential,460 Gerona Rd,Stanford,CA,94305,2798000,6,3.0,STANFORD,2584,44535,1962,7,1083,,Active,,,https://www.redfin.com/CA/Stanford/460-Gerona-Rd-94305/home/1274266,MLSListings,ML81943988,N,Y,37.4163508,-122.1722546
MLS Listing,,Townhouse,410 Don Andres Ct,San Jose,CA,95123,724888,3,1.5,SAN JOSE,1156,856,1970,7,627,310,Active,October-14-2023 01:00 PM,October-14-2023 04:00 PM,https://www.redfin.com/CA/San-Jose/410-Don-Andres-Ct-95123/home/957255,MLSListings,ML81943989,N,Y,37.2532715,-121.8375239
MLS Listing,,Multi-Family (5+ Unit),552 Horning St,San Jose,CA,95112,2150000,,,SAN JOSE,2400,11475,1942,7,896,,Active,,,https://www.redfin.com/CA/San-Jose/552-Horning-St-95112/home/1334312,MLSListings,ML81943984,N,Y,37.3612535,-121.8925153
MLS Listing,,Single Family Residential,490 N 5th St,San Jose,CA,95112,1325000,3,2.0,SAN JOSE,1278,6202,1901,7,1037,,Active,October-11-2023 10:00 AM,October-11-2023 12:30 PM,https://www.redfin.com/CA/San-Jose/490-N-5th-St-95112/home/1282459,MLSListings,ML81943251,N,Y,37.3466122,-121.8922588
MLS Listing,,Single Family Residential,2151 Briarwood Dr,Santa Clara,CA,95051,1600000,3,2.0,SANTA CLARA,1240,7434,1956,7,1290,,Active,,,https://www.redfin.com/CA/Santa-Clara/2151-Briarwood-Dr-95051/home/1603716,MLSListings,ML81943978,N,Y,37.3617627,-121.9932742
MLS Listing,,Townhouse,498 Ives Ter,Sunnyvale,CA,94087,1550000,2,2.0,SUNNYVALE,1960,3989,1981,7,791,580,Active,,,https://www.redfin.com/CA/Sunnyvale/498-Ives-Ter-94087/home/1495412,MLSListings,ML81943975,N,Y,37.3603286,-122.03004
MLS Listing,,Single Family Residential,369 Ruth Ave,Mountain View,CA,94043,1699999,4,2.0,MOUNTAIN VIEW,1440,6516,1956,7,1181,,Active,,,https://www.redfin.com/CA/Mountain-View/369-Ruth-Ave-94043/home/1222397,MLSListings,ML81943973,N,Y,37.4097871,-122.1009864
MLS Listing,,Single Family Residential,1471 Mardan Dr,San Jose,CA,95132,1499950,4,2.5,SAN JOSE,1836,6132,1969,7,817,,Active,,,https://www.redfin.com/CA/San-Jose/1471-Mardan-Dr-95132/home/1639637,MLSListings,ML81943473,N,Y,37.4058916,-121.8544567
MLS Listing,,Single Family Residential,4393 Laird Cir,Santa Clara,CA,95054,1679000,3,3.0,SANTA CLARA,1590,1843,2005,7,1056,145,Active,October-14-2023 01:00 PM,October-14-2023 04:00 PM,https://www.redfin.com/CA/Santa-Clara/4393-Laird-Cir-95054/home/1485634,MLSListings,ML81943971,N,Y,37.4009062,-121.948388
MLS Listing,,Single Family Residential,373 Avenida Arboles,San Jose,CA,95123,1488000,4,2.5,San Jose,1908,7471,1968,7,780,,Active,October-14-2023 01:00 PM,October-14-2023 04:00 PM,https://www.redfin.com/CA/San-Jose/373-Avenida-Arboles-95123/home/757495,BAREIS,323915379,N,Y,37.2559709,-121.8357778
MLS Listing,,Single Family Residential,4667 Blanco Dr,San Jose,CA,95129,1998000,3,2.0,SAN JOSE,1645,6067,1963,7,1215,,Active,,,https://www.redfin.com/CA/San-Jose/4667-Blanco-Dr-95129/home/801750,MLSListings,ML81943964,N,Y,37.3080893,-121.9854781
MLS Listing,,Single Family Residential,779 Cathedral Dr,Sunnyvale,CA,94087,2998000,5,4.0,SUNNYVALE,2554,10530,1959,8,1174,,Active,,,https://www.redfin.com/CA/Sunnyvale/779-Cathedral-Dr-94087/home/1183113,MLSListings,ML81943185,N,Y,37.3474395,-122.0456435
MLS Listing,,Townhouse,4991 Ponderosa Ter,Campbell,CA,95008,985000,3,1.5,CAMPBELL,1176,1086,1973,8,838,436,Active,,,https://www.redfin.com/CA/Campbell/4991-Ponderosa-Ter-95008/home/1791115,MLSListings,ML81942828,N,Y,37.2706626,-121.9888938
MLS Listing,,Single Family Residential,1538 Denali Way,San Jose,CA,95122,999998,4,2.0,SAN JOSE,1139,6459,1978,8,878,,Active,,,https://www.redfin.com/CA/San-Jose/1538-Denali-Way-95122/home/1373302,MLSListings,ML81943959,N,Y,37.3202231,-121.832041
MLS Listing,,Single Family Residential,60 N Milton Ave,Campbell,CA,95008,2250000,4,3.0,CAMPBELL,1306,7635,1940,8,1723,,Active,,,https://www.redfin.com/CA/Campbell/60-N-Milton-Ave-95008/home/954046,MLSListings,ML81943924,N,Y,37.2879208,-121.9548877
MLS Listing,,Mobile/Manufactured Home,88 Park Dr #88,Morgan Hill,CA,95037,525000,3,2.0,MORGAN HILL,1602,,2006,8,328,,Active,,,https://www.redfin.com/CA/Morgan-Hill/88-Park-Dr-95037/unit-88/home/63740390,MLSListings,ML81943941,N,Y,37.0930862,-121.6365843
MLS Listing,,Single Family Residential,2929 Kring Dr,San Jose,CA,95125,1875000,3,2.0,SAN JOSE,1824,7995,1954,8,1028,,Active,,,https://www.redfin.com/CA/San-Jose/2929-Kring-Dr-95125/home/1037624,MLSListings,ML81942916,N,Y,37.2761985,-121.8904803
MLS Listing,,Single Family Residential,1095 Rochester Ct,Sunnyvale,CA,94087,2385000,4,2.0,SUNNYVALE,1834,9246,1961,8,1300,,Active,,,https://www.redfin.com/CA/Sunnyvale/1095-Rochester-Ct-94087/home/1223585,MLSListings,ML81943937,N,Y,37.3580437,-122.0581096
MLS Listing,,Mobile/Manufactured Home,2151 Oakland Rd #3,San Jose,CA,95131,349950,3,2.0,SAN JOSE,1596,,2004,8,219,,Active,,,https://www.redfin.com/CA/San-Jose/2151-Oakland-Rd-95131/unit-3/home/1054513,MLSListings,ML81943936,N,Y,37.3962328,-121.9053495
MLS Listing,,Townhouse,1389 Cherrywood Sq,San Jose,CA,95117,998800,2,2.5,SAN JOSE,1292,1314,1972,8,773,350,Active,,,https://www.redfin.com/CA/San-Jose/1389-Cherrywood-Sq-95117/home/1847114,MLSListings,ML81943935,N,Y,37.29959,-121.959763
MLS Listing,,Condo/Co-op,1033 Crestview Dr #110,Mountain View,CA,94040,859500,2,2.0,MOUNTAIN VIEW,1140,,1969,8,754,612,Active,,,https://www.redfin.com/CA/Mountain-View/1033-Crestview-Dr-94040/unit-110/home/1697065,MLSListings,ML81943931,N,Y,37.3727325,-122.0598668
MLS Listing,,Condo/Co-op,8099 Cabernet Ct,San Jose,CA,95135,938000,2,2.0,SAN JOSE,1803,,1978,8,520,1427,Active,,,https://www.redfin.com/CA/San-Jose/8099-Cabernet-Ct-95135/home/962369,MLSListings,ML81943929,N,Y,37.2861159,-121.7478934
MLS Listing,,Single Family Residential,2963 Valley Of Hearts Delight Pl,San Jose,CA,95136,1488888,4,3.5,SAN JOSE,2149,2517,2019,8,693,129,Active,,,https://www.redfin.com/CA/San-Jose/2963-Valley-of-Hearts-Delight-Pl-95136/home/167616389,MLSListings,ML81943927,N,Y,37.284627,-121.849923
MLS Listing,,Single Family Residential,1757 Hillsdale Ave,San Jose,CA,95124,1098000,3,1.0,SAN JOSE,1060,5096,1954,8,1036,,Active,,,https://www.redfin.com/CA/San-Jose/1757-Hillsdale-Ave-95124/home/1367097,MLSListings,ML81943335,N,Y,37.2653793,-121.9141318
MLS Listing,,Single Family Residential,349 Howard Dr,Santa Clara,CA,95051,1698000,6,3.0,SANTA CLARA,2043,6600,1958,8,831,,Active,,,https://www.redfin.com/CA/Santa-Clara/349-Howard-Dr-95051/home/1307073,MLSListings,ML81943859,N,Y,37.3288689,-122.0040458
MLS Listing,,Townhouse,21078 White Fir Ct,Cupertino,CA,95014,948000,2,1.0,CUPERTINO,914,1594,1971,8,1037,448,Active,,,https://www.redfin.com/CA/Cupertino/21078-White-Fir-Ct-95014/home/783716,MLSListings,ML81936983,N,Y,37.3135223,-122.042728
MLS Listing,,Single Family Residential,1572 Willowbrook Dr,San Jose,CA,95118,1475000,3,2.0,SAN JOSE,1260,5783,1959,8,1171,,Active,,,https://www.redfin.com/CA/San-Jose/1572-Willowbrook-Dr-95118/home/1327821,MLSListings,ML81943914,N,Y,37.2645654,-121.8994169
MLS Listing,,Single Family Residential,1792 Wilcox Way,San Jose,CA,95125,2795000,4,2.5,SAN JOSE,2416,8025,1962,8,1157,,Active,,,https://www.redfin.com/CA/San-Jose/1792-Wilcox-Way-95125/home/847783,MLSListings,ML81943909,N,Y,37.2940373,-121.8989056
MLS Listing,,Condo/Co-op,1706 Bevin Brook Dr,San Jose,CA,95112,740000,3,3.0,SAN JOSE,1201,803,1993,8,616,460,Active,,,https://www.redfin.com/CA/San-Jose/1706-Bevin-Brook-Dr-95112/home/1050904,MLSListings,ML81942435,N,Y,37.319472,-121.855794
MLS Listing,,Single Family Residential,1910 Via Santa Elena,Morgan Hill,CA,95037,3098665,5,5.5,,5333,12119,2024,8,581,375,Active,,,https://www.redfin.com/CA/Morgan-Hill/1910-Via-Santa-Elena-95037/home/185153873,"bridgeMLS, Bay East AOR, or Contra Costa AOR",41040877,N,Y,37.1619059,-121.6331342
MLS Listing,,Condo/Co-op,469 Bellezza Pl,San Jose,CA,95128,1498000,4,4.0,SAN JOSE,1784,,2012,8,840,368,Active,,,https://www.redfin.com/CA/San-Jose/469-Bellezza-Pl-95128/home/52672648,MLSListings,ML81943896,N,Y,37.3191465,-121.9437915
MLS Listing,,Single Family Residential,629 Villa Centre Way,San Jose,CA,95128,2199000,4,3.0,SAN JOSE,2223,3138,1996,8,989,177,Active,,,https://www.redfin.com/CA/San-Jose/629-Villa-Centre-Way-95128/home/722090,MLSListings,ML81943892,N,Y,37.3202333,-121.9448002
MLS Listing,,Multi-Family (2-4 Unit),3178 Williamsburg Dr,San Jose,CA,95117,1650000,8,4.0,SAN JOSE,2880,7381,1962,8,573,,Active,,,https://www.redfin.com/CA/San-Jose/3178-Williamsburg-Dr-95117/home/1662291,MLSListings,ML81943890,N,Y,37.2975914,-121.9523548
MLS Listing,,Single Family Residential,762 Viader Ct,Santa Clara,CA,95050,2299000,4,2.5,SANTA CLARA,1805,7410,1947,8,1274,,Active,October-14-2023 01:00 PM,October-14-2023 04:00 PM,https://www.redfin.com/CA/Santa-Clara/762-Viader-Ct-95050/home/1176136,MLSListings,ML81940550,N,Y,37.3422686,-121.9571095
MLS Listing,,Single Family Residential,840 Laura Ct,Campbell,CA,95008,3288000,4,4.5,CAMPBELL,3136,7483,2023,8,1048,,Active,,,https://www.redfin.com/CA/Campbell/840-Laura-Ct-95008/home/583672,MLSListings,ML81937269,N,Y,37.274449,-121.9635978
MLS Listing,,Single Family Residential,12849 Ashley Ct,Saratoga,CA,95070,3998000,4,2.5,SARATOGA,2176,25059,1963,8,1837,,Active,,,https://www.redfin.com/CA/Saratoga/12849-Ashley-Ct-95070/home/1419042,MLSListings,ML81943883,N,Y,37.2822104,-122.0355104
MLS Listing,,Single Family Residential,17435 Phillips Ave,Los Gatos,CA,95030,6750000,5,4.5,LOS GATOS,5166,63074,2017,8,1307,,Active,October-14-2023 02:00 PM,October-14-2023 04:00 PM,https://www.redfin.com/CA/Los-Gatos/17435-Phillips-Ave-95030/home/143058663,MLSListings,ML81943882,N,Y,37.2182232,-121.9599756
MLS Listing,,Single Family Residential,975 Llagas Rd,Morgan Hill,CA,95037,2998888,4,3.0,MORGAN HILL,2655,128787,1915,8,1130,,Active,October-11-2023 09:00 AM,October-11-2023 12:00 PM,https://www.redfin.com/CA/Morgan-Hill/975-Llagas-Rd-95037/home/45485753,MLSListings,ML81941510,N,Y,37.1341901,-121.6772114
MLS Listing,,Single Family Residential,13558 Toni Ann Pl,Saratoga,CA,95070,3698000,4,2.5,SARATOGA,2670,13440,1984,8,1385,,Active,,,https://www.redfin.com/CA/Saratoga/13558-Toni-Ann-Pl-95070/home/1060123,MLSListings,ML81943879,N,Y,37.2697802,-122.0338009
MLS Listing,,Single Family Residential,18545 Vina Dr,Los Gatos,CA,95033,1950000,3,2.0,LOS GATOS,2301,33541,1900,8,847,,Active,,,https://www.redfin.com/CA/Los-Gatos/18545-Vina-Dr-95033/home/1718464,MLSListings,ML81943875,N,Y,37.1998298,-121.9958062
MLS Listing,,Townhouse,244 Ventura Ave,Palo Alto,CA,94306,1698000,3,2.5,PALO ALTO,1226,601,1978,8,1385,310,Active,,,https://www.redfin.com/CA/Palo-Alto/244-Ventura-Ave-94306/home/1113513,MLSListings,ML81943498,N,Y,37.419156,-122.128419
MLS Listing,,Condo/Co-op,921 Mountain Ash Ter #11,Sunnyvale,CA,94086,1446469,2,2.5,PONDEROSA,1444,500,2023,8,1002,353,Active,,,https://www.redfin.com/CA/Sunnyvale/921-Mountain-Ash-Ter-94086/unit-11/home/181234676,"bridgeMLS, Bay East AOR, or Contra Costa AOR",41040860,N,Y,37.354116,-121.951621
MLS Listing,,Single Family Residential,99 Fairview Plz,Los Gatos,CA,95030,1999000,2,1.0,LOS GATOS,1222,8930,1900,8,1636,,Active,October-14-2023 02:00 PM,October-14-2023 04:00 PM,https://www.redfin.com/CA/Los-Gatos/99-Fairview-Plz-95030/home/920807,MLSListings,ML81943872,N,Y,37.2245827,-121.9879896
MLS Listing,,Townhouse,860 Georgetown Pl,San Jose,CA,95126,1268888,3,2.5,SAN JOSE,1859,1432,2003,8,683,400,Active,,,https://www.redfin.com/CA/San-Jose/860-Georgetown-Pl-95126/home/1631107,MLSListings,ML81943711,N,Y,37.3276113,-121.905792
MLS Listing,,Single Family Residential,16980 Oak Leaf Dr,Morgan Hill,CA,95037,1499888,4,2.5,MORGAN HILL,2567,15635,1973,8,584,33,Active,October-14-2023 01:00 PM,October-14-2023 04:00 PM,https://www.redfin.com/CA/Morgan-Hill/16980-Oak-Leaf-Dr-95037/home/1485141,MLSListings,ML81943871,N,Y,37.145369,-121.5968636
MLS Listing,,Single Family Residential,333 Byron St,Palo Alto,CA,94301,2498000,2,1.0,PALO ALTO,1232,5626,1938,8,2028,,Active,,,https://www.redfin.com/CA/Palo-Alto/333-Byron-St-94301/home/585846,MLSListings,ML81943870,N,Y,37.4515331,-122.159232
MLS Listing,,Single Family Residential,14 Sunkist Ln,Los Altos,CA,94022,4800000,3,3.5,LOS ALTOS,2780,13723,1959,8,1727,,Active,,,https://www.redfin.com/CA/Los-Altos/14-Sunkist-Ln-94022/home/635590,MLSListings,ML81939940,N,Y,37.381632,-122.1059787
MLS Listing,,Townhouse,1033 White Peach Way,San Jose,CA,95133,1299888,3,3.5,SAN JOSE,1697,677,2013,8,766,213,Active,,,https://www.redfin.com/CA/San-Jose/1033-White-Peach-Way-95133/home/95955833,MLSListings,ML81942289,N,Y,37.3810511,-121.8631425
MLS Listing,,Townhouse,21093 Red Fir Ct,Cupertino,CA,95014,1280000,3,1.5,CUPERTINO,1265,938,1971,8,1012,448,Active,,,https://www.redfin.com/CA/Cupertino/21093-Red-Fir-Ct-95014/home/712481,MLSListings,ML81943865,N,Y,37.315392,-122.043202
MLS Listing,,Single Family Residential,3193 Finch Dr,San Jose,CA,95117,1698000,2,1.0,SAN JOSE,1100,11691,1948,8,1544,,Active,October-14-2023 01:30 PM,October-14-2023 04:30 PM,https://www.redfin.com/CA/San-Jose/3193-Finch-Dr-95117/home/745656,MLSListings,ML81943864,N,Y,37.3039119,-121.9527103
MLS Listing,,Single Family Residential,951 N 3rd St,San Jose,CA,95112,1395000,3,2.0,SAN JOSE,2050,6188,1938,8,680,,Active,,,https://www.redfin.com/CA/San-Jose/951-N-3rd-St-95112/home/1138804,MLSListings,ML81943817,N,Y,37.3552448,-121.9023067
MLS Listing,,Condo/Co-op,207 Coy Dr #4,San Jose,CA,95123,530000,2,1.0,SAN JOSE,798,,1970,8,664,387,Active,,,https://www.redfin.com/CA/San-Jose/207-Coy-Dr-95123/unit-4/home/991967,MLSListings,ML81941546,N,Y,37.255687,-121.8232435
MLS Listing,,Single Family Residential,1310 Mercy St,Mountain View,CA,94041,1678000,2,1.0,MOUNTAIN VIEW,930,5553,1920,8,1804,,Active,,,https://www.redfin.com/CA/Mountain-View/1310-Mercy-St-94041/home/1272441,MLSListings,ML81943727,N,Y,37.3925407,-122.0870954
MLS Listing,,Single Family Residential,2256 Santa Ana St,Palo Alto,CA,94303,3398000,4,3.0,PALO ALTO,1885,6230,1951,8,1803,,Active,,,https://www.redfin.com/CA/Palo-Alto/2256-Santa-Ana-St-94303/home/1679176,MLSListings,ML81943841,N,Y,37.4451689,-122.1273431
MLS Listing,,Single Family Residential,17625 Upper East Zayante Rd,Los Gatos,CA,95033,2250000,4,2.5,LOS GATOS,2963,136822,1969,8,759,,Active,October-15-2023 02:00 PM,October-15-2023 04:00 PM,https://www.redfin.com/CA/Los-Gatos/17625-Upper-East-Zayante-Rd-95033/home/2398871,MLSListings,ML81931454,N,Y,37.161737,-122.015325
MLS Listing,,Townhouse,3201 Vineyard Park Way,San Jose,CA,95135,1288000,3,2.5,SAN JOSE,1628,1160,2000,8,791,335,Active,,,https://www.redfin.com/CA/San-Jose/3201-Vineyard-Park-Way-95135/home/924184,MLSListings,ML81943838,N,Y,37.3149213,-121.7786895
MLS Listing,,Multi-Family (2-4 Unit),1178 W Olive Ave,Sunnyvale,CA,94086,2098000,6,4.0,SUNNYVALE,2244,7300,1976,8,935,,Active,,,https://www.redfin.com/CA/Sunnyvale/1178-W-Olive-Ave-94086/home/729203,MLSListings,ML81943839,N,Y,37.374654,-122.054965
MLS Listing,,Townhouse,58 La Mancha Ln,Morgan Hill,CA,95037,925000,3,2.5,,1817,1100,2017,9,509,361,Active,,,https://www.redfin.com/CA/Morgan-Hill/58-La-Mancha-Ln-95037/home/167551246,"bridgeMLS, Bay East AOR, or Contra Costa AOR",41040834,N,Y,37.1376708,-121.6594758
MLS Listing,,Single Family Residential,14574 Eastview Dr,Los Gatos,CA,95032,3999999,4,3.0,LOS GATOS,2817,13014,1975,9,1420,,Active,October-14-2023 01:30 PM,October-14-2023 04:00 PM,https://www.redfin.com/CA/Los-Gatos/14574-Eastview-Dr-95032/home/793151,MLSListings,ML81943836,N,Y,37.2567194,-121.9720611
MLS Listing,,Condo/Co-op,250 Santa Fe Ter #116,Sunnyvale,CA,94085,849000,3,2.0,SUNNYVALE,1182,1392,1995,9,718,586,Active,,,https://www.redfin.com/CA/Sunnyvale/250-Santa-Fe-Ter-94085/unit-116/home/660673,MLSListings,ML81943835,N,Y,37.3804957,-122.0165326
MLS Listing,,Single Family Residential,745 Independence Ave,Mountain View,CA,94043,1850000,3,1.0,MOUNTAIN VIEW,920,7107,1946,9,2011,,Active,,,https://www.redfin.com/CA/Mountain-View/745-Independence-Ave-94043/home/607320,MLSListings,ML81938277,N,Y,37.413864,-122.097303
MLS Listing,,Single Family Residential,1188 Malone Rd,San Jose,CA,95125,2398000,3,2.5,SAN JOSE,1929,8018,1941,9,1243,,Active,October-14-2023 01:00 PM,October-14-2023 04:00 PM,https://www.redfin.com/CA/San-Jose/1188-Malone-Rd-95125/home/1098912,MLSListings,ML81943677,N,Y,37.2920166,-121.8927923
MLS Listing,,Single Family Residential,382 N 7th St,San Jose,CA,95112,899000,2,1.0,SAN JOSE,918,5062,1935,9,979,,Active,,,https://www.redfin.com/CA/San-Jose/382-N-7th-St-95112/home/1764557,MLSListings,ML81943830,N,Y,37.3453277,-121.8885239
MLS Listing,,Single Family Residential,9241 Tea Tree Ct,Gilroy,CA,95020,1750000,4,3.5,GILROY,3040,10209,2015,9,576,65,Active,October-14-2023 12:00 PM,October-14-2023 02:00 PM,https://www.redfin.com/CA/Gilroy/9241-Tea-Tree-Ct-95020/home/21839976,MLSListings,ML81943829,N,Y,37.0272998,-121.615111
